attraction_id,city_id,city_nm,attraction_nm,address,theme,rate,longitude,latitude
A01,C01,서울,가락동농수산물도매시장,서울 송파구 양재대로 932-0,Shopping,5,127.1087136,37.49453769
A02,C01,서울,타임스퀘어,서울 영등포구 영중로 15-0,Shopping,4.998,126.903716,37.51723326
A03,C01,서울,노량진수산시장,서울 동작구 노들로 674-0,Shopping,4.997,126.937976,37.51482369
A04,C01,서울,롯데몰김포공항점,서울 강서구 하늘길 38-0,Shopping,4.995,126.8029604,37.57136985
A05,C01,서울,IFC몰,서울 영등포구 국제금융로 10-0,Shopping,4.994,126.9248767,37.52517752
A06,C01,서울,롯데월드몰,서울 송파구 올림픽로 300-0,Shopping,4.992,127.1044469,37.51375196
A07,C01,서울,가든파이브라이프,서울 송파구 충민로 66-0,Shopping,4.991,127.1249618,37.47761484
A08,C01,서울,강서농산물도매시장,서울 강서구 발산로 40-0,Shopping,4.989,126.8228628,37.55537701
A09,C01,서울,현대시티아울렛동대문점,서울 중구 장충단로13길 20-0,Shopping,4.988,127.0076665,37.56873455
A10,C01,서울,롯데몰은평점,서울 은평구 통일로 1050-0,Shopping,4.986,126.9179003,37.63753667
A11,C01,서울,동대문종합시장,서울 종로구 종로 266-0,Shopping,4.985,127.0073287,37.57070649
A12,C01,서울,경동시장,서울 동대문구 고산자로36길 3-0,Shopping,4.983,127.0391429,37.57903777
A13,C01,서울,망원시장,서울 마포구 포은로8길 14-0,Shopping,4.982,126.905628,37.55624
A14,C01,서울,마리오아울렛1관,서울 금천구 디지털로 185-0,Shopping,4.98,126.8872528,37.47812746
A15,C01,서울,현대시티아울렛가산점,서울 금천구 디지털로10길 9-0,Shopping,4.979,126.8890553,37.47761902
A16,C01,서울,W몰,서울 금천구 디지털로 188-0,Shopping,4.977,126.8876762,37.47732723
A17,C01,서울,현대시티몰가든파이브점,서울 송파구 충민로 66-0,Shopping,4.976,127.1249618,37.47761484
A18,C01,서울,광장시장,서울 종로구 창경궁로 88-0,Shopping,4.974,126.9997072,37.57011251
A19,C01,서울,가든파이브툴,서울 송파구 충민로 10-0,Shopping,4.972,127.1191067,37.47861732
A20,C01,서울,마장축산물시장,서울 성동구 마장로31길 40-0,Shopping,4.971,127.0384065,37.56979398
A21,C01,서울,두산타워,서울 중구 장충단로 275-0,Shopping,4.969,127.0087751,37.56888494
A22,C01,서울,가든파이브웍스,서울 송파구 충민로 52-0,Shopping,4.968,127.122746,37.47771763
A23,C01,서울,방산종합시장,서울 중구 동호로37길 20-0,Shopping,4.966,127.0008056,37.56872417
A24,C01,서울,가락몰,서울 송파구 양재대로 932-0,Shopping,4.965,127.1087136,37.49453769
A25,C01,서울,밀리오레동대문점,서울 중구 장충단로 263-0,Shopping,4.963,127.0084727,37.56811569
A26,C01,서울,마포농수산물시장,서울 마포구 월드컵로 235-0,Shopping,4.962,126.8984828,37.56519935
A27,C01,서울,마리오아울렛3관,서울 금천구 벚꽃로 266-0,Shopping,4.96,126.8850808,37.47844577
A28,C01,서울,가락수산시장,서울 송파구 양재대로 932-0,Shopping,4.959,127.1087136,37.49453769
A29,C01,서울,용산전자상가,서울 용산구,Shopping,4.957,126.9905778,37.53242743
A30,C01,서울,디오트쇼핑몰,서울 중구 다산로 293-0,Shopping,4.956,127.0149918,37.56915966
A31,C01,서울,남대문시장,서울 중구,Shopping,4.954,126.9975552,37.56380777
A32,C01,서울,성대전통시장,서울 동작구 상도로 102-0,Shopping,4.953,126.9317763,37.4999427
A33,C01,서울,타임스트림,서울 관악구 신림로 330-0,Shopping,4.951,126.9302345,37.48385134
A34,C01,서울,제일평화시장,서울 중구 마장로 13-0,Shopping,4.95,127.0114021,37.56851432
A35,C01,서울,독산동우시장,서울 금천구 범안로 1209-0,Shopping,4.948,126.8962825,37.46682635
A36,C01,서울,수유시장,서울 강북구 도봉로67길 18-0,Shopping,4.946,127.0226681,37.63072891
A37,C01,서울,대신시장,서울 영등포구 도신로60길 7-0,Shopping,4.945,126.9175858,37.51107124
A38,C01,서울,문정동로데오거리,서울 송파구,Shopping,4.943,127.1059177,37.51458372
A39,C01,서울,신창시장,서울 도봉구 덕릉로57길 10-0,Shopping,4.942,127.0379319,37.63934246
A40,C01,서울,금남시장,서울 성동구 독서당로 303-7,Shopping,4.94,127.0227128,37.54845297
A41,C01,서울,누죤,서울 중구 을지로45길 62-0,Shopping,4.939,127.0130083,37.56694777
A42,C01,서울,ddp패션몰,서울 중구 마장로 22-0,Shopping,4.937,127.0121115,37.56726556
A43,C01,서울,청량리청과물시장,서울 동대문구 왕산로 167-0,Shopping,4.936,127.0416889,37.57941486
A44,C01,서울,스타시티,서울 광진구 아차산로 272-0,Shopping,4.934,127.0729962,37.53855827
A45,C01,서울,방이시장,서울 송파구 백제고분로48길 35-0,Shopping,4.933,127.1169325,37.51058513
A46,C01,서울,방학동도깨비시장,서울 도봉구 도당로13다길 33-0,Shopping,4.931,127.0328498,37.66534905
A47,C01,서울,후암시장,서울 용산구 후암로35길 24-0,Shopping,4.93,126.9760048,37.55046177
A48,C01,서울,아트몰링장안점,서울 동대문구 답십리로 288-0,Shopping,4.928,127.072387,37.57192367
A49,C01,서울,우림시장,서울 중랑구 망우로62길 52-4,Shopping,4.927,127.0982722,37.59677182
A50,C01,서울,커먼그라운드,서울 광진구 아차산로 200-0,Shopping,4.925,127.0656692,37.54105663
A51,C01,서울,현대시장,서울 관악구 양녕로 49-0,Shopping,4.924,126.946515,37.48643059
A52,C01,서울,눈스퀘어,서울 중구 명동길 14-0,Shopping,4.922,126.9828877,37.56341165
A53,C01,서울,마천중앙시장,서울 송파구 마천로45길 23-0,Shopping,4.92,127.1506963,37.49808049
A54,C01,서울,영등포청과시장,서울 영등포구 영신로 161-0,Shopping,4.919,126.9010916,37.52210623
A55,C01,서울,정릉시장,서울 성북구 보국문로11길 18-2,Shopping,4.917,127.0090985,37.60886097
A56,C01,서울,청평화시장,서울 중구 청계천로 334-0,Shopping,4.916,127.0149365,37.56946664
A57,C01,서울,대림시장,서울 은평구 응암로4길 22-0,Shopping,4.914,126.9177421,37.58679729
A58,C01,서울,가리봉시장,서울 구로구,Shopping,4.913,126.8875053,37.49543309
A59,C01,서울,신라면세점서울점,서울 중구 동호로 249-0,Shopping,4.911,127.0079529,37.55750551
A60,C01,서울,화곡본동시장,서울 강서구 까치산로 35-0,Shopping,4.91,126.8441295,37.54288484
A61,C01,서울,중부시장,서울 중구 을지로32길 34-0,Shopping,4.908,127.0000756,37.56529129
A62,C01,서울,용문시장,서울 용산구,Shopping,4.907,126.9905778,37.53242743
A63,C01,서울,엄마손쇼핑센터,서울 송파구 가락로 103-0,Shopping,4.905,127.1076013,37.50140348
A64,C01,서울,암사종합시장,서울 강동구 상암로11길 25-0,Shopping,4.904,127.1288208,37.55085885
A65,C01,서울,롯데팩토리아울렛가산점,서울 금천구 벚꽃로 278-0,Shopping,4.902,126.8846349,37.47949312
A66,C01,서울,서울중앙시장,서울 중구 퇴계로85길 22-0,Shopping,4.901,127.0197886,37.56679285
A67,C01,서울,썬프라자,서울 영등포구 신길로 39-0,Shopping,4.899,126.907785,37.49596657
A68,C01,서울,AK&홍대점,서울 마포구 양화로 188-0,Shopping,4.898,126.9264983,37.55774581
A69,C01,서울,SFC몰,서울 중구 세종대로 136-0,Shopping,4.896,126.9782565,37.56842322
A70,C01,서울,황학동주방기구거리,서울 중구,Shopping,4.894,126.9975552,37.56380777
A71,C01,서울,구로시장,서울 구로구 구로동로22길 17-4,Shopping,4.893,126.8856198,37.48963005
A72,C01,서울,봉일시장,서울 관악구 은천로 28-0,Shopping,4.891,126.9383804,37.48592467
A73,C01,서울,공영홈쇼핑,서울 마포구 상암산로 34-0,Shopping,4.89,126.8892399,37.5762102
A74,C01,서울,신평화패션타운,서울 중구 청계천로 298-0,Shopping,4.888,127.0110696,37.56945382
A75,C01,서울,올림픽프라자,서울 송파구 양재대로 1222-0,Shopping,4.887,127.1310632,37.51572764
A76,C01,서울,서울풍물시장,서울 동대문구 천호대로4길 21-0,Shopping,4.885,127.0255029,37.57271319
A77,C01,서울,영등포전통시장,서울 영등포구,Shopping,4.884,126.8962739,37.52636357
A78,C01,서울,금강쇼핑센터,서울 강남구 압구정로 201-0,Shopping,4.882,127.0292731,37.53153417
A79,C01,서울,동화면세점본점,서울 종로구 세종대로 149-0,Shopping,4.881,126.9761402,37.56957113
A80,C01,서울,중랑동부시장,서울 중랑구 중랑천로10길 57-0,Shopping,4.879,127.0761781,37.59241158
A81,C01,서울,와이즈파크,서울 마포구 양화로 176-0,Shopping,4.878,126.9249862,37.55724678
A82,C01,서울,영천시장,서울 서대문구,Shopping,4.876,126.9368157,37.57916186
A83,C01,서울,하이브랜드MALL,서울 서초구 매헌로 16-0,Shopping,4.875,127.0369479,37.46246735
A84,C01,서울,에이피엠플레이스,서울 중구 을지로 276-0,Shopping,4.873,127.0084303,37.56531919
A85,C01,서울,밀리오레명동점,서울 중구 퇴계로 115-0,Shopping,4.872,126.9845142,37.56105243
A86,C01,서울,중곡제일시장,서울 광진구 긴고랑로11길 14-0,Shopping,4.87,127.0817652,37.56388274
A87,C01,서울,공릉동도깨비시장,서울 노원구 동일로180길 22-0,Shopping,4.869,127.0755238,37.62233161
A88,C01,서울,마리오아울렛2관,서울 금천구 디지털로9길 23-0,Shopping,4.867,126.8864768,37.47872057
A89,C01,서울,우림시장,서울 관악구 난곡로26길 4-0,Shopping,4.865,126.9204441,37.47029785
A90,C01,서울,남성사계시장,서울 동작구 동작대로29길 9-0,Shopping,4.864,126.9814661,37.4879389
A91,C01,서울,롯데아울렛서울역점,서울 용산구 한강대로 405-0,Shopping,4.862,126.9717326,37.5548376
A92,C01,서울,맥스타일,서울 중구 마장로 3-0,Shopping,4.861,127.010544,37.56879848
A93,C01,서울,주양쇼핑,서울 강동구 고덕로62길 55-0,Shopping,4.859,127.153459,37.55239614
A94,C01,서울,다이소대치본점,서울 강남구 도곡로 435-0,Shopping,4.858,127.0577066,37.49858616
A95,C01,서울,비트플렉스,서울 성동구 왕십리광장로 17-0,Shopping,4.856,127.0383942,37.56144175
A96,C01,서울,노룬산골목시장,서울 광진구,Shopping,4.855,127.0823852,37.53855831
A97,C01,서울,양곡도매시장,서울 서초구 양재대로12길 36-0,Shopping,4.852,127.0366377,37.45868509
A98,C01,서울,지밸리몰,서울 구로구 디지털로 300-0,Shopping,4.85,126.896538,37.48492704
A99,C01,서울,관악프라자,서울 관악구 관악로 212-0,Shopping,4.849,126.9551835,37.48362314
A100,C01,서울,동원시장,서울 중랑구 면목로74길 45-0,Shopping,4.847,127.0898932,37.58983834
A101,C01,서울,르네상스쇼핑몰,서울 관악구 신림로 340-0,Shopping,4.846,126.9300965,37.48476254
A102,C01,서울,안녕인사동,서울 종로구 인사동길 49-0,Shopping,4.844,126.9835522,37.57446687
A103,C01,서울,신곡종합시장,서울 양천구 남부순환로79길 37-0,Shopping,4.843,126.8431967,37.518369
A104,C01,서울,방신재래시장,서울 강서구 방화동로16길 32-0,Shopping,4.841,126.812647,37.57150834
A105,C01,서울,스타필드코엑스몰,서울 강남구 영동대로 513-0,Shopping,4.839,127.059159,37.51182391
A106,C01,서울,반포쇼핑타운,서울 서초구 신반포로 165-0,Shopping,4.838,127.0021717,37.50572512
A107,C01,서울,서울경동약령시장,서울 동대문구 약령중앙로 10-0,Shopping,4.836,127.0370603,37.57910781
A108,C01,서울,롯데면세점본점,서울 중구 남대문로 81-0,Shopping,4.835,126.9817304,37.5647299
A109,C01,서울,태릉시장,서울 중랑구 동일로129길 35-0,Shopping,4.833,127.0775053,37.59922257
A110,C01,서울,평화시장,서울 중구 청계천로 274-0,Shopping,4.832,127.0080476,37.56942586
A111,C01,서울,다이소위례본점,서울 송파구 위례광장로 136-0,Shopping,4.83,127.1423748,37.47719582
A112,C01,서울,대림중앙시장,서울 영등포구 디지털로37나길 15-0,Shopping,4.829,126.8995056,37.49126521
A113,C01,서울,다이소발산역점,서울 강서구 공항대로 280-0,Shopping,4.827,126.8384314,37.55803043
A114,C01,서울,와우쇼핑몰,서울 노원구 노해로 507-0,Shopping,4.826,127.0638891,37.65542724
A115,C01,서울,응암시장,서울 은평구 응암로 252-0,Shopping,4.824,126.9184145,37.5944443
A116,C01,서울,포방터시장,서울 서대문구 포방터길 46-0,Shopping,4.823,126.9491371,37.59870349
A117,C01,서울,CT LEX,서울 금천구 시흥대로 399-0,Shopping,4.821,126.8970019,37.46935918
A118,C01,서울,통인시장,서울 종로구 자하문로15길 18-0,Shopping,4.82,126.9699476,37.580767
A119,C01,서울,리치몰,서울 구로구 구로중앙로 134-0,Shopping,4.818,126.8840982,37.49998807
A120,C01,서울,파르나스몰,서울 강남구 테헤란로 521-0,Shopping,4.817,127.0608069,37.50919169
A121,C01,서울,신원시장,서울 관악구 남부순환로 1578-0,Shopping,4.815,126.925934,37.48351418
A122,C01,서울,새마을시장,서울 송파구 석촌호수로12길 7-0,Shopping,4.813,127.0855973,37.50902487
A123,C01,서울,HelloAPM,서울 중구 장충단로 253-0,Shopping,4.812,127.0080789,37.5674871
A124,C01,서울,개봉중앙시장,서울 구로구 개봉로17길 34-0,Shopping,4.81,126.8540716,37.49178393
A125,C01,서울,동대문문구완구종합시장,서울 종로구 종로54길 19-0,Shopping,4.809,127.0141511,37.57155912
A126,C01,서울,길동복조리시장,서울 강동구 천호대로187길 61-0,Shopping,4.807,127.1427747,37.5371278
A127,C01,서울,동화상가,서울 중구 장충단로13길 34-0,Shopping,4.806,127.006912,37.56860486
A128,C01,서울,동묘시장,서울 종로구 종로58길 12-0,Shopping,4.804,127.0177713,37.57284417
A129,C01,서울,성수낙낙,서울 성동구 아차산로17길 48-0,Shopping,4.803,127.0658895,37.54639376
A130,C01,서울,목동깨비시장,서울 양천구 목동중앙북로 29-0,Shopping,4.801,126.8668326,37.54826456
A131,C01,서울,신영시장,서울 양천구 월정로 161-5,Shopping,4.8,126.8360249,37.53301405
A132,C01,서울,롯데면세점월드타워점,서울 송파구 올림픽로 300-0,Shopping,4.798,127.1044469,37.51375196
A133,C01,서울,자양전통시장,서울 광진구 자양로13길 72-0,Shopping,4.797,127.0808514,37.53359477
A134,C01,서울,상계중앙시장,서울 노원구 상계로27길 19-0,Shopping,4.795,127.0700909,37.65932127
A135,C01,서울,창신동문구거리,서울 종로구,Shopping,4.794,126.97899,37.57350424
A136,C01,서울,신성종합시장,서울 광진구 용마산로 50-0,Shopping,4.792,127.0880508,37.55808075
A137,C01,서울,경창시장,서울 양천구 오목로9길 31-0,Shopping,4.791,126.8421214,37.52493416
A138,C01,서울,종로귀금속거리,서울 종로구,Shopping,4.789,126.97899,37.57350424
A139,C01,서울,송화벽화시장,서울 강서구 강서로45나길 16-0,Shopping,4.787,126.8357802,37.54877011
A140,C01,서울,면목시장,서울 중랑구 면목로37길 5-0,Shopping,4.786,127.0857942,37.57885405
A141,C01,서울,메종에르메스,서울 강남구 도산대로45길 7-0,Shopping,4.784,127.0353455,37.52278586
A142,C01,서울,둔촌역전통시장,서울 강동구,Shopping,4.783,127.1237925,37.53019332
A143,C01,서울,혜양엘리시움,서울 중구 마장로1길 18-0,Shopping,4.781,127.0125803,37.56866358
A144,C01,서울,관악신사시장,서울 관악구 난곡로74길 58-0,Shopping,4.78,126.9169665,37.48630152
A145,C01,서울,뚝도시장,서울 성동구 성수이로 32-15,Shopping,4.778,127.054827,37.53780064
A146,C01,서울,삼양시장,서울 강북구,Shopping,4.777,127.0255381,37.63975133
A147,C01,서울,우이시장,서울 강북구 한천로162길 24-0,Shopping,4.775,127.0200724,37.64631813
A148,C01,서울,라시따델라모다,서울 서초구 매헌로 16-0,Shopping,4.774,127.0369479,37.46246735
A149,C01,서울,남부시장,서울 강서구 등촌로5길 62-4,Shopping,4.772,126.860019,37.53318161
A150,C01,서울,삼익패션타운,서울 중구 남대문시장8길 7-0,Shopping,4.771,126.9789566,37.56043529
A151,C01,서울,삼성동시장,서울 관악구 원신1길 34-0,Shopping,4.769,126.9327711,37.47034019
A152,C01,서울,현대시장,서울 동대문구 한천로11길 61-0,Shopping,4.768,127.0588426,37.56703311
A153,C01,서울,다이소망우2호점,서울 중랑구 망우로 416-0,Shopping,4.766,127.0983511,37.59916578
A154,C01,서울,다이소합정점,서울 마포구 독막로 33-1,Shopping,4.765,126.9173408,37.54838073
A155,C01,서울,무신사스탠다드홍대점,서울 마포구 양화로 144-0,Shopping,4.763,126.922394,37.55534364
A156,C01,서울,신동아쇼핑센터,서울 용산구 이촌로 352-0,Shopping,4.761,126.9851757,37.51738375
A157,C01,서울,다이소송파파크하비오점,서울 송파구 송파대로 111-0,Shopping,4.76,127.1249139,37.47966838
A158,C01,서울,고분다리전통시장,서울 강동구 구천면로34길 10-0,Shopping,4.758,127.1318232,37.54231975
A159,C01,서울,무지개쇼핑센터,서울 서초구 사임당로 151-0,Shopping,4.757,127.0256928,37.49206768
A160,C01,서울,남구로시장,서울 구로구 구로동로26길 25-0,Shopping,4.755,126.8855488,37.49030493
A161,C01,서울,디자이너클럽,서울 중구 을지로45길 72-0,Shopping,4.754,127.013071,37.56740493
A162,C01,서울,연서시장,서울 은평구 통일로 850-0,Shopping,4.752,126.921445,37.61932033
A163,C01,서울,천호로데오거리,서울 강동구,Shopping,4.751,127.1237925,37.53019332
A164,C01,서울,한강쇼핑센터,서울 용산구 이촌로 224-0,Shopping,4.749,126.9718771,37.52014579
A165,C01,서울,신세계면세점명동점,서울 중구 퇴계로 77-0,Shopping,4.748,126.9807761,37.56035992
A166,C01,서울,다이소매봉역점,서울 강남구 남부순환로 2748-0,Shopping,4.746,127.0471989,37.48661527
A167,C01,서울,목사랑시장,서울 양천구 목동중앙남로7길 8-0,Shopping,4.745,126.866218,37.53761613
A168,C01,서울,동대문종합시장A동,서울 종로구 종로 266-0,Shopping,4.743,127.0073287,37.57070649
A169,C01,서울,서울청과,서울 송파구 양재대로 932-0,Shopping,4.742,127.1087136,37.49453769
A170,C01,서울,aza쇼핑몰,서울 영등포구 영중로 28-0,Shopping,4.74,126.9058681,37.51885932
A171,C01,서울,다이소미아사거리점,서울 강북구 월계로 3-0,Shopping,4.739,127.0306496,37.60957479
A172,C01,서울,만리동시장,서울 용산구 효창원로 270-0,Shopping,4.737,126.963696,37.5513334
A173,C01,서울,메사,서울 중구 남대문시장10길 2-0,Shopping,4.735,126.9796012,37.5603736
A174,C01,서울,파크에비뉴엔터식스한양대점,서울 성동구 왕십리로 241-0,Shopping,4.734,127.040105,37.55715433
A175,C01,서울,나비쇼핑몰,서울 강동구 천호대로157길 14-0,Shopping,4.732,127.1272894,37.53823175
A176,C01,서울,한국청과,서울 송파구 양재대로 932-0,Shopping,4.731,127.1087136,37.49453769
A177,C01,서울,삼부프라자,서울 노원구 한글비석로 242-0,Shopping,4.729,127.0769736,37.6492349
A178,C01,서울,헌인가구단지,서울 서초구,Shopping,4.728,127.0326893,37.48358882
A179,C01,서울,신라아이파크면세점용산점,서울 용산구 한강대로23길 55-0,Shopping,4.726,126.9647415,37.5297718
A180,C01,서울,티몬,서울 강남구 테헤란로114길 38-0,Shopping,4.725,127.066993,37.50712432
A181,C01,서울,전곡시장,서울 동대문구 한천로 190-0,Shopping,4.723,127.068569,37.57789377
A182,C01,서울,다이소상일동역점,서울 강동구 고덕로 399-0,Shopping,4.722,127.1696789,37.55744052
A183,C01,서울,굿윌스토어밀알송파점,서울 송파구 마천로 226-0,Shopping,4.719,127.1429223,37.50021958
A184,C01,서울,아트프라자,서울 중구 마장로1길 28-0,Shopping,4.717,127.0128273,37.56919289
A185,C01,서울,불로장생타워,서울 동대문구 왕산로 117-0,Shopping,4.716,127.0364929,37.57849586
A186,C01,서울,여의도백화점,서울 영등포구 국제금융로6길 33-0,Shopping,4.714,126.926912,37.52079083
A187,C01,서울,동대문종합시장D동,서울 종로구 종로 266-0,Shopping,4.713,127.0073287,37.57070649
A188,C01,서울,장미원시장,서울 강북구 삼양로123길 14-5,Shopping,4.711,127.0145489,37.6449407
A189,C01,서울,모던하우스연희점,서울 서대문구 연희로 148-0,Shopping,4.709,126.9344602,37.57027587
A190,C01,서울,충신시장,서울 종로구 율곡로22길 7-0,Shopping,4.708,127.0054414,37.57485162
A191,C01,서울,청계천공구상가,서울 중구,Shopping,4.706,126.9975552,37.56380777
A192,C01,서울,다이소세곡점,서울 강남구 헌릉로569길 21-36,Shopping,4.705,127.1001617,37.46638458
A193,C01,서울,풍납전통시장,서울 송파구 바람드리길 50-0,Shopping,4.703,127.1210777,37.53726043
A194,C01,서울,아현시장,서울 마포구 굴레방로 27-10,Shopping,4.702,126.9550724,37.55671984
A195,C01,서울,이경시장,서울 동대문구 외대역동로 76-0,Shopping,4.7,127.0648528,37.59493067
A196,C01,서울,아이코스스토어가로수길점,서울 강남구 압구정로10길 27-0,Shopping,4.699,127.0221337,37.52188059
A197,C01,서울,제일프라자,서울 중랑구 동일로143길 19-0,Shopping,4.697,127.0776206,37.60500676
A198,C01,서울,아성다이소본사,서울 강남구 남부순환로 2748-0,Shopping,4.696,127.0471989,37.48661527
A199,C01,서울,고척근린시장,서울 구로구 경인로33길 103-0,Shopping,4.694,126.8501143,37.50238102
A200,C01,서울,봉천중앙시장,서울 관악구,Shopping,4.693,126.9515619,37.47836838
A201,C01,서울,청량리수산시장,서울 동대문구 고산자로34길 48-1,Shopping,4.691,127.0411412,37.5780887
A202,C01,서울,잠원쇼핑센터,서울 서초구 신반포로23길 41-0,Shopping,4.69,127.0044694,37.51165835
A203,C01,서울,다이소가좌역점,서울 서대문구 수색로 26-0,Shopping,4.688,126.9157534,37.5691638
A204,C01,서울,다이소방학역점,서울 도봉구 도봉로 696-0,Shopping,4.687,127.0434219,37.66663602
A205,C01,서울,논현동가구거리,서울 강남구,Shopping,4.685,127.0473774,37.51733193
A206,C01,서울,현대백화점면세점동대문점,서울 중구 장충단로 275-0,Shopping,4.683,127.0087751,37.56888494
A207,C01,서울,범서쇼핑센터,서울 은평구 통일로 842-0,Shopping,4.682,126.9220638,37.61869023
A208,C01,서울,까치산시장,서울 강서구 강서로12길 14-0,Shopping,4.68,126.8478603,37.53153099
A209,C01,서울,다이소성수2가점,서울 성동구 성덕정길 106-0,Shopping,4.679,127.0551048,37.53715944
A210,C01,서울,한아름쇼핑센터,서울 광진구 능동로13길 39-0,Shopping,4.677,127.0697577,37.54395902
A211,C01,서울,다이소홍대2호점,서울 마포구 양화로 182-0,Shopping,4.676,126.9255878,37.557761
A212,C01,서울,중앙청과,서울 송파구 양재대로 932-0,Shopping,4.674,127.1087136,37.49453769
A213,C01,서울,다이소여의도점,서울 영등포구 여의나루로 61-0,Shopping,4.673,126.9260155,37.52322442
A214,C01,서울,수유중앙시장,서울 강북구 노해로17길 21-0,Shopping,4.671,127.0211763,37.64033675
A215,C01,서울,명일전통시장,서울 강동구 양재대로138길 20-0,Shopping,4.67,127.1449535,37.54953208
A216,C01,서울,길음시장,서울 성북구 동소문로 227-0,Shopping,4.668,127.021592,37.60278063
A217,C01,서울,현대백화점면세점무역센터점,서울 강남구 테헤란로 517-0,Shopping,4.666,127.0597651,37.50861513
A218,C01,서울,삼익쇼핑센터,서울 도봉구 덕릉로57길 30-0,Shopping,4.666,127.0372271,37.64003383
A219,C01,서울,진양프라자,서울 중구 퇴계로 217-0,Shopping,4.664,126.9959312,37.56242271
A220,C01,서울,다이소길동점,서울 강동구 양재대로 1490-0,Shopping,4.662,127.14065,37.53881783
A221,C01,서울,패션과문화의거리,서울 관악구,Shopping,4.661,126.9515619,37.47836838
A222,C01,서울,라붐아울렛,서울 관악구 남부순환로 1820-0,Shopping,4.659,126.9520838,37.480948
A223,C01,서울,스튜디오W,서울 중구 마장로1길 22-0,Shopping,4.657,127.0126877,37.5688945
A224,C01,서울,다이소압구정역점,서울 강남구 논현로 878-0,Shopping,4.656,127.0289521,37.52709141
A225,C01,서울,장위전통시장,서울 성북구 화랑로19가길 20-22,Shopping,4.654,127.0512444,37.61032024
A226,C01,서울,동대문쇼핑타운,서울 종로구 종로 266-0,Shopping,4.653,127.0073287,37.57070649
A227,C01,서울,비단길현대시장,서울 금천구 독산로41길 7-0,Shopping,4.651,126.9043423,37.45983805
A228,C01,서울,카멜리아,서울 금천구 금하로 705-0,Shopping,4.65,126.9083613,37.45157084
A229,C01,서울,대림프라자,서울 동작구 사당로17길 8-0,Shopping,4.648,126.9743434,37.48409377
A230,C01,서울,밤나무골시장,서울 성북구,Shopping,4.647,127.0167029,37.58935882
A231,C01,서울,인헌시장,서울 관악구 인헌6길 16-0,Shopping,4.645,126.9660073,37.47409857
A232,C01,서울,수유프라자,서울 강북구 도봉로 261-0,Shopping,4.644,127.0234675,37.63169253
A233,C01,서울,다이소선릉점,서울 강남구 테헤란로 414-0,Shopping,4.642,127.0516273,37.50491277
A234,C01,서울,도곡시장,서울 강남구 선릉로 317-0,Shopping,4.641,127.0517956,37.49784224
A235,C01,서울,동북프라자,서울 강북구 솔샘로 233-0,Shopping,4.639,127.0190955,37.62042225
A236,C01,서울,쌍용프라자,서울 송파구 동남로 189-0,Shopping,4.638,127.1298537,37.49466141
A237,C01,서울,그랜드프라자,서울 노원구 한글비석로 264-0,Shopping,4.636,127.0773379,37.65115871
A238,C01,서울,대조시장,서울 은평구 진흥로 153-0,Shopping,4.635,126.9264355,37.60911184
A239,C01,서울,다이소응암본점,서울 은평구 은평로 127-0,Shopping,4.633,126.9219657,37.60062993
A240,C01,서울,동대문종합시장B동,서울 종로구 종로 266-0,Shopping,4.631,127.0073287,37.57070649
A241,C01,서울,메트로백화점,서울 은평구 통일로 856-0,Shopping,4.63,126.9215229,37.61962267
A242,C01,서울,석관시장,서울 성북구 돌곶이로22가길 27-0,Shopping,4.628,127.0602954,37.6089425
A243,C01,서울,강남개포시장,서울 강남구 개포로 512-0,Shopping,4.627,127.0688421,37.48930721
A244,C01,서울,연신내,서울 은평구,Shopping,4.625,126.928941,37.60281744
A245,C01,서울,사모아쇼핑,서울 구로구 구일로10길 93-0,Shopping,4.624,126.8769385,37.49586972
A246,C01,서울,신반포상가,서울 서초구 신반포로15길 29-0,Shopping,4.622,126.9946958,37.50547058
A247,C01,서울,다이소가양역2호점,서울 강서구 화곡로 418-0,Shopping,4.621,126.8552177,37.56035479
A248,C01,서울,종로꽃시장,서울 종로구,Shopping,4.619,126.97899,37.57350424
A249,C01,서울,증산종합시장,서울 은평구 증산로3길 12-0,Shopping,4.619,126.9050616,37.58146885
A250,C01,서울,다이소장안사거리점,서울 동대문구 장한로25길 2-0,Shopping,4.616,127.0711221,37.57187659
A251,C01,서울,프리마,서울 송파구 올림픽로4길 48-0,Shopping,4.615,127.074256,37.50656181
A252,C01,서울,다이소가락시장역점,서울 송파구 중대로 109-0,Shopping,4.613,127.1204792,37.49384242
A253,C01,서울,구의시장,서울 광진구 광나루로37길 10-15,Shopping,4.612,127.0881861,37.54555642
A254,C01,서울,다이소아차산역2호점,서울 광진구 천호대로 661-0,Shopping,4.61,127.0901094,37.55201486
A255,C01,서울,신사쇼핑센터,서울 서초구 나루터로 37-0,Shopping,4.609,127.0141936,37.51544279
A256,C01,서울,영등포윤활유,서울 영등포구 버드나루로 35-0,Shopping,4.607,126.9115119,37.52177888
A257,C01,서울,마장동먹자골목,서울 성동구 마장로35길 68-0,Shopping,4.606,127.0412753,37.57068248
A258,C01,서울,강동수산,서울 송파구 양재대로 932-0,Shopping,4.604,127.1087136,37.49453769
A259,C01,서울,면곡시장,서울 광진구 답십리로76길 5-4,Shopping,4.602,127.0811197,37.57121629
A260,C01,서울,글로리아타운,서울 종로구 평창문화로 75-0,Shopping,4.601,126.9690062,37.60686264
A261,C01,서울,이태원시장,서울 용산구 이태원로14길 6-0,Shopping,4.599,126.9900484,37.53381836
A262,C01,서울,다이소둔촌점,서울 강동구 양재대로 1355-0,Shopping,4.598,127.1356161,37.52739525
A263,C01,서울,트레지오,서울 강북구 도봉로 34-0,Shopping,4.596,127.0307216,37.61206853
A264,C01,서울,성내전통시장,서울 강동구 천호대로162길 61-0,Shopping,4.595,127.1278893,37.53416804
A265,C01,서울,굿윌스토어도봉점,서울 도봉구 마들로 664-17,Shopping,4.593,127.0474475,37.66956662
A266,C01,서울,영일시장,서울 영등포구 문래로30길 27-0,Shopping,4.592,126.9007193,37.51613516
A267,C01,서울,다이소양재2호점,서울 서초구 남부순환로 2614-0,Shopping,4.59,127.0366745,37.48447416
A268,C01,서울,다이소구의역점,서울 광진구 아차산로 378-0,Shopping,4.589,127.0847291,37.53653959
A269,C01,서울,철두철미,서울 강남구 논현로128길 24-0,Shopping,4.587,127.0331554,37.51380538
A270,C01,서울,대림쇼핑타운,서울 동작구 여의대방로 250-0,Shopping,4.585,126.9245178,37.50874345
A271,C01,서울,다이소이태원점,서울 용산구 이태원로15길 1-0,Shopping,4.585,126.9901904,37.53461873
A272,C01,서울,다이소삼양시장점,서울 강북구 삼양로 234-0,Shopping,4.583,127.018711,37.62432079
A273,C01,서울,보람유통,서울 강서구 국회대로7길 157-0,Shopping,4.581,126.8521278,37.5289336
A274,C01,서울,다이소구산역점,서울 은평구 서오릉로 156-0,Shopping,4.58,126.9160175,37.612277
A275,C01,서울,다이소노량진점,서울 동작구 노량진로 166-0,Shopping,4.578,126.9447744,37.51335842
A276,C01,서울,신사시장,서울 강남구 압구정로29길 72-1,Shopping,4.576,127.028402,37.53228798
A277,C01,서울,다이소신정네거리점,서울 양천구 신월로 291-0,Shopping,4.575,126.853354,37.52144834
A278,C01,서울,대명프라자,서울 노원구 한글비석로 254-0,Shopping,4.573,127.0770862,37.6504043
A279,C01,서울,다이소사가정2호점,서울 중랑구 면목로 290-0,Shopping,4.572,127.0863153,37.57855842
A280,C01,서울,다이소쌍문역점,서울 도봉구 도봉로 491-0,Shopping,4.57,127.034875,37.64952488
A281,C01,서울,자양종합시장,서울 광진구 자양번영로6길 20-0,Shopping,4.569,127.076531,37.53213533
A282,C01,서울,황학동벼룩시장,서울 종로구 종로58길 6-3,Shopping,4.567,127.0175966,37.57302682
A283,C01,서울,마포농수산물시장상인번영회,서울 마포구 월드컵로 235-0,Shopping,4.566,126.8984828,37.56519935
A284,C01,서울,다이소먹골역점,서울 중랑구 동일로 889-0,Shopping,4.564,127.0776042,37.60975976
A285,C01,서울,다이소교대역점,서울 서초구 서초대로 320-0,Shopping,4.563,127.0165761,37.49422002
A286,C01,서울,다이소대치역점,서울 강남구 남부순환로 2921-0,Shopping,4.561,127.059773,37.49349436
A287,C01,서울,인왕시장,서울 서대문구,Shopping,4.56,126.9368157,37.57916186
A288,C01,서울,용마프라자,서울 중랑구 봉우재로71길 18-0,Shopping,4.558,127.0987649,37.59638596
A289,C01,서울,다이소배명사거리점,서울 송파구 삼학사로 53-0,Shopping,4.557,127.096617,37.50201881
A290,C01,서울,신신림시장,서울 관악구 원신2길 34-0,Shopping,4.555,126.9321463,37.47066149
A291,C01,서울,이태원앤틱가구거리,서울 용산구,Shopping,4.554,126.9905778,37.53242743
A292,C01,서울,망원동월드컵시장,서울 마포구 망원로7길 31-0,Shopping,4.552,126.9050809,37.55873145
A293,C01,서울,화곡중앙골목시장,서울 강서구 월정로30길 66-0,Shopping,4.55,126.8395063,37.53488408
A294,C01,서울,다이소거여점,서울 송파구 거마로 12-0,Shopping,4.55,127.145002,37.49390244
A295,C01,서울,아이유푸드,서울 금천구 범안로21길 14-0,Shopping,4.547,126.8968011,37.46726613
A296,C01,서울,다이소상왕십리역점,서울 성동구 왕십리로 373-0,Shopping,4.545,127.0286632,37.56429887
A297,C01,서울,신도봉시장,서울 도봉구 도당로27길 60-0,Shopping,4.545,127.0411237,37.67001525
A298,C01,서울,돈암시장,서울 성북구 동소문로18길 18-0,Shopping,4.543,127.0159183,37.59153653
A299,C01,서울,기프너스상품권,서울 송파구 올림픽로 212-0,Shopping,4.541,127.0942316,37.51070678
A300,C01,서울,역촌중앙시장,서울 은평구 연서로17길 18-6,Shopping,4.54,126.9162153,37.6132821
A301,C01,서울,행당시장,서울 성동구 왕십리로21길 19-0,Shopping,4.538,127.0327718,37.56069508
A302,C01,서울,다이소송파구청점,서울 송파구 오금로 87-0,Shopping,4.537,127.1074248,37.51460921
A303,C01,서울,남부종합시장,서울 서초구 방배중앙로27길 17-0,Shopping,4.535,126.9848056,37.49499219
A304,C01,서울,다이소홈플러스영등포점,서울 영등포구 당산로 42-0,Shopping,4.534,126.8958802,37.5182397
A305,C01,서울,공덕시장족발골목,서울 마포구 만리재로 19-0,Shopping,4.532,126.9532582,37.54479479
A306,C01,서울,다이소방이시장점,서울 송파구 백제고분로48길 5-0,Shopping,4.531,127.114005,37.51175938
A307,C01,서울,도봉시장,서울 도봉구 마들로 724-0,Shopping,4.529,127.0476623,37.67454408
A308,C01,서울,다이소강남고속버스터미널점,서울 서초구 신반포로 194-0,Shopping,4.528,127.0068344,37.50643574
A309,C01,서울,다이소영동프라자점,서울 강남구 강남대로128길 20-0,Shopping,4.526,127.0238232,37.50999521
A310,C01,서울,원상사,서울 강동구 명일로 216-1,Shopping,4.524,127.1463238,37.53801977
A311,C01,서울,다이소공릉점,서울 노원구 동일로192길 29-0,Shopping,4.523,127.0745071,37.62645319
A312,C01,서울,동대문종합시장N동,서울 종로구 종로 272-0,Shopping,4.521,127.0080914,37.57081871
A313,C01,서울,다이소대방점,서울 동작구 여의대방로 190-0,Shopping,4.52,126.9221809,37.50382839
A314,C01,서울,우천상품권,서울 중구 남대문로 64-1,Shopping,4.518,126.9822405,37.56290348
A315,C01,서울,다이소노원본점,서울 노원구 동일로 1392-0,Shopping,4.517,127.0613245,37.65305379
A316,C01,서울,가양중앙하이츠아파트상가,서울 강서구 허준로 55-20,Shopping,4.514,126.8487661,37.56989933
A317,C01,서울,신풍시장,서울 영등포구 신길로 164-0,Shopping,4.512,126.911248,37.50684788
A318,C01,서울,아리랑골목시장,서울 성북구 아리랑로19길 10-0,Shopping,4.511,127.0128244,37.60264946
A319,C01,서울,청량종합도매시장,서울 동대문구 경동시장로 3-1,Shopping,4.509,127.0408575,37.57933848
A320,C01,서울,다이소낙성대점,서울 관악구 남부순환로 1960-0,Shopping,4.508,126.9663007,37.475703
A321,C01,서울,공덕시장,서울 마포구,Shopping,4.506,126.9019551,37.56621419
A322,C01,서울,고려시장,서울 성북구,Shopping,4.505,127.0167029,37.58935882
A323,C01,서울,LF 라움이스트,서울 강남구 언주로 872-0,Shopping,4.503,127.0340852,37.52825954
A324,C01,서울,TTM스퀘어,서울 광진구 아차산로 355-0,Shopping,4.502,127.0825655,37.53736761
A325,C01,서울,다이소오목교점,서울 양천구 오목로 344-0,Shopping,4.5,126.8751431,37.5237531
A326,C01,서울,대원시장,서울 강서구 화곡로21길 78-0,Shopping,4.498,126.8364753,37.54448674
A327,C01,서울,신응암시장,서울 은평구,Shopping,4.497,126.928941,37.60281744
A328,C01,서울,통일상가,서울 중구 청계천로 260-6,Shopping,4.495,127.0062102,37.56916306
A329,C01,서울,다이소천호본점,서울 강동구 천호대로 1012-0,Shopping,4.494,127.1241518,37.53809778
A330,C01,서울,다이소잠실점,서울 송파구 석촌호수로 88-0,Shopping,4.492,127.0866633,37.50850394
A331,C01,서울,전농로터리시장,서울 동대문구,Shopping,4.491,127.039657,37.57452298
A332,C01,서울,우성쇼핑센터,서울 동작구 여의대방로 22-0,Shopping,4.489,126.9118137,37.49109691
A333,C01,서울,다이소석촌점,서울 송파구 가락로 103-0,Shopping,4.488,127.1076013,37.50140348
A334,C01,서울,다이소강남구청역점,서울 강남구 학동로 지하 346-0,Shopping,4.486,127.0413014,37.51718924
A335,C01,서울,다이소독산점,서울 금천구 시흥대로 403-0,Shopping,4.482,126.8974893,37.46980866
A336,C01,서울,백두쇼핑센터,서울 강동구 고덕로83길 28-0,Shopping,4.48,127.1690093,37.55826274
A337,C01,서울,숭인시장,서울 강북구 도봉로 45-0,Shopping,4.479,127.0294532,37.61314356
A338,C01,서울,다이소왕십리점,서울 성동구 고산자로 234-0,Shopping,4.477,127.0352654,37.56052651
A339,C01,서울,다이소구로디지털2호점,서울 구로구 시흥대로 557-0,Shopping,4.476,126.9010446,37.48298724
A340,C01,서울,동부시장,서울 동대문구 천호대로 281-0,Shopping,4.474,127.0522092,37.56757575
A341,C01,서울,다이소상암월드컵점,서울 마포구 월드컵로 240-0,Shopping,4.472,126.897273,37.56828845
A342,C01,서울,암사청과종합시장,서울 강동구 상암로 42-0,Shopping,4.471,127.127884,37.54957802
A343,C01,서울,삼아사운드,서울 종로구 삼일대로 457-0,Shopping,4.469,126.9861675,37.57528783
A344,C01,서울,장안제일시장,서울 중랑구 동일로96길 20-0,Shopping,4.467,127.0809839,37.58460984
A345,C01,서울,다이소종로본점,서울 종로구 삼일대로 395-0,Shopping,4.467,126.9873599,37.56990362
A346,C01,서울,듀펠센터,서울 동대문구 한천로26길 48-12,Shopping,4.465,127.0678881,37.57061701
A347,C01,서울,사당시장,서울 동작구 사당로 244-0,Shopping,4.463,126.9753375,37.48288276
A348,C01,서울,다이소당산점,서울 영등포구 양평로 49-0,Shopping,4.462,126.9009906,37.53410713
A349,C01,서울,공릉쇼핑센터,서울 노원구 동일로180길 14-0,Shopping,4.46,127.0753261,37.62195341
A350,C01,서울,종로신진시장,서울 종로구 종로38길 16-0,Shopping,4.459,127.0049462,37.57022828
A351,C01,서울,다이소효창공원역점,서울 용산구 효창원로 119-0,Shopping,4.457,126.9608556,37.53884681
A352,C01,서울,다이소마천점,서울 송파구 마천로 281-0,Shopping,4.456,127.1480102,37.49714503
A353,C01,서울,새빛시장,서울 중구 을지로 282-1,Shopping,4.453,127.0093702,37.56531749
A354,C01,서울,보광시장,서울 용산구 보광로 30-0,Shopping,4.453,127.0002892,37.52719632
A355,C01,서울,다이소세이브마트난곡점,서울 관악구 난곡로 220-0,Shopping,4.451,126.9180585,37.47428544
A356,C01,서울,조광시장,서울 영등포구,Shopping,4.45,126.8962739,37.52636357
A357,C01,서울,다이소난곡사거리점,서울 관악구 남부순환로 1474-0,Shopping,4.448,126.9142068,37.48145951
A358,C01,서울,무신사,서울 강남구 언주로174길 30-0,Shopping,4.446,127.0363122,37.5278619
A359,C01,서울,청명&청솔,서울 중구 을지로 213-0,Shopping,4.445,127.0017882,37.56710245
A360,C01,서울,다이소중곡역점,서울 광진구 면목로 147-0,Shopping,4.443,127.0814232,37.56653325
A361,C01,서울,다이소구로구청점,서울 구로구 가마산로 263-0,Shopping,4.443,126.8894264,37.49592261
A362,C01,서울,남대리세상,서울 영등포구 대림로34라길 10-0,Shopping,4.44,126.8998006,37.49980719
A363,C01,서울,경태네자전거가게,서울 서초구 강남대로25길 59-0,Shopping,4.439,127.0356467,37.47553249
A364,C01,서울,다이소창동3호점,서울 도봉구 덕릉로63가길 68-0,Shopping,4.435,127.0367191,37.64278749
A365,C01,서울,성수동수제화거리,서울 성동구,Shopping,4.435,127.0369301,37.56342721
A366,C01,서울,다이소응암역점,서울 은평구 은평로 68-0,Shopping,4.433,126.9153015,37.5987638
A367,C01,서울,신설동종합시장,서울 종로구 난계로27길 51-0,Shopping,4.431,127.0203448,37.57266959
A368,C01,서울,동대문종합시장C동,서울 종로구 종로 266-0,Shopping,4.43,127.0073287,37.57070649
A369,C01,서울,은행나무시장,서울 금천구 금하로25길 9-0,Shopping,4.428,126.9093491,37.45131824
A370,C01,서울,성원애드피아,서울 중구 퇴계로41길 6-0,Shopping,4.427,126.9963109,37.5620589
A371,C01,서울,다이소홍대입구점,서울 마포구 홍익로 25-0,Shopping,4.424,126.9219658,37.5544056
A372,C01,서울,동진시장,서울 마포구 성미산로 198-0,Shopping,4.424,126.9267634,37.56237655
A373,C01,서울,금호프라자,서울 노원구 상계로5길 32-0,Shopping,4.422,127.0628425,37.65711525
A374,C01,서울,다이소대림2호점,서울 영등포구 도림로 157-0,Shopping,4.42,126.899021,37.49456951
A375,C01,서울,다이소보라매점,서울 동작구 보라매로5가길 16-0,Shopping,4.419,126.9240947,37.4912751
A376,C01,서울,사운드캣,서울 용산구 원효로48길 17-0,Shopping,4.417,126.961186,37.53431597
A377,C01,서울,다이소상봉역점,서울 중랑구 망우로 287-0,Shopping,4.416,127.0843274,37.59631265
A378,C01,서울,기어라운지,서울 마포구 독막로8길 24-0,Shopping,4.414,126.9177376,37.54693968
A379,C01,서울,다이소경기마트길음점,서울 성북구 길음로9길 50-0,Shopping,4.413,127.020948,37.60269651
A380,C01,서울,동화시장,서울 중구 장충단로13길 34-0,Shopping,4.411,127.006912,37.56860486
A381,C01,서울,롯데면세점코엑스점,서울 강남구 테헤란로87길 58-0,Shopping,4.41,127.0575397,37.51201518
A382,C01,서울,다이소도곡점,서울 강남구 도곡로 188-0,Shopping,4.408,127.0400204,37.49182097
A383,C01,서울,다이소상도점,서울 동작구 상도로 277-0,Shopping,4.407,126.9483414,37.50281477
A384,C01,서울,천호공구거리,서울 강동구,Shopping,4.405,127.1237925,37.53019332
A385,C01,서울,다이소개봉남부역점,서울 구로구 남부순환로97길 3-0,Shopping,4.404,126.8582551,37.49399577
A386,C01,서울,신흥시장,서울 용산구 신흥로 95-9,Shopping,4.402,126.9850855,37.54532379
A387,C01,서울,시몬스 그로서리 스토어청담점,서울 강남구 선릉로158길 14-1,Shopping,4.401,127.0412136,37.52514431
A388,C01,서울,일인자,서울 강남구 도산대로85길 35-0,Shopping,4.399,127.049476,37.52683169
A389,C01,서울,신동아프라자,서울 도봉구 방학로 223-0,Shopping,4.398,127.0275004,37.66131898
A390,C01,서울,청과물시장,서울 송파구 양재대로 932-0,Shopping,4.396,127.1087136,37.49453769
A391,C01,서울,보문시장,서울 성북구,Shopping,4.394,127.0167029,37.58935882
A392,C01,서울,다이소강남2호점,서울 강남구 테헤란로 109-0,Shopping,4.393,127.0289915,37.49882537
A393,C01,서울,파티팡강남점,서울 강남구 봉은사로 169-0,Shopping,4.391,127.03245,37.50716481
A394,C01,서울,다이소천호점,서울 강동구 올림픽로 674-0,Shopping,4.39,127.1248174,37.54145078
A395,C01,서울,셀트리온스킨큐어본점,서울 서초구 강남대로 601-0,Shopping,4.388,127.0193652,37.51528564
A396,C01,서울,다이소고척동점,서울 구로구 중앙로 64-0,Shopping,4.387,126.8628336,37.50379925
A397,C01,서울,위캔두잇,서울 강남구 학동로50길 23-0,Shopping,4.385,127.0404929,37.51511297
A398,C01,서울,강북북부시장,서울 강북구 한천로123길 26-0,Shopping,4.384,127.0303422,37.63623599
A399,C01,서울,다이소사당2호점,서울 동작구 남부순환로 2057-0,Shopping,4.382,126.9773597,37.47693443
A400,C01,서울,다이소신곡시장점,서울 양천구 신월로 160-0,Shopping,4.38,126.8415598,37.51757006
A401,C01,서울,백련상가,서울 서대문구 가재울로6길 53-87,Shopping,4.38,126.923101,37.57700143
A402,C01,서울,한신쇼핑,서울 도봉구 도봉로180나길 41-0,Shopping,4.378,127.0498958,37.68434454
A403,C01,서울,제기시장,서울 동대문구 제기로 19-0,Shopping,4.376,127.0352456,37.58665554
A404,C01,서울,조은유통,서울 광진구 자양로 220-0,Shopping,4.375,127.0871732,37.54653872
A405,C01,서울,다이소쌍문세라믹사거리점,서울 도봉구 도당로 7-0,Shopping,4.373,127.0347745,37.65878413
A406,C01,서울,다이소홈플러스가양점,서울 강서구 양천로 431-0,Shopping,4.372,126.8499602,37.56426405
A407,C01,서울,한솔동의보감,서울 동대문구 왕산로 109-0,Shopping,4.37,127.0360639,37.57860789
A408,C01,서울,다이소내방역점,서울 서초구 서초대로24길 3-0,Shopping,4.369,126.9932059,37.48727818
A409,C01,서울,아현가구거리,서울 서대문구,Shopping,4.366,126.9368157,37.57916186
A410,C01,서울,청계천애완동물거리,서울 종로구,Shopping,4.366,126.97899,37.57350424
A411,C01,서울,다이소화곡역점,서울 강서구 화곡로 161-0,Shopping,4.364,126.8391664,37.54183231
A412,C01,서울,새턴바스,서울 강남구 학동로 206-0,Shopping,4.362,127.031522,37.51390296
A413,C01,서울,제일에스엠씨,서울 영등포구 도림로 287-0,Shopping,4.361,126.9033004,37.50340917
A414,C01,서울,하나특판,서울 강남구 개포로28길 10-0,Shopping,4.359,127.049433,37.47824119
A415,C01,서울,다이소신촌본점,서울 마포구 신촌로 90-0,Shopping,4.358,126.9355391,37.55531182
A416,C01,서울,다이소신촌명물거리점,서울 서대문구 명물길 27-0,Shopping,4.356,126.9380662,37.55830592
A417,C01,서울,이촌종합시장,서울 용산구 이촌로77길 19-0,Shopping,4.354,126.974667,37.52055367
A418,C01,서울,아이코스스토어광화문점,서울 종로구 종로3길 24-20,Shopping,4.354,126.9804112,37.57141922
A419,C01,서울,다이소남영역점,서울 용산구 한강대로77길 12-0,Shopping,4.352,126.9718943,37.54220897
A420,C01,서울,자양골목시장,서울 광진구 자양로15길 96-0,Shopping,4.35,127.0783768,37.53477567
A421,C01,서울,다이소수유본점,서울 강북구 도봉로 342-0,Shopping,4.349,127.0261287,37.63803455
A422,C01,서울,다이소상계보람점,서울 노원구 한글비석로 470-0,Shopping,4.347,127.0659678,37.66466728
A423,C01,서울,가야쇼핑센터,서울 관악구 봉천로12길 39-0,Shopping,4.346,126.9301109,37.4870239
A424,C01,서울,신정제일시장,서울 양천구 중앙로34길 30-0,Shopping,4.344,126.8535581,37.52084249
A425,C01,서울,GS홈쇼핑제2사옥,서울 영등포구 선유로 82-0,Shopping,4.343,126.8902737,37.52128271
A426,C01,서울,다이소남부터미널점,서울 서초구 서초중앙로 36-0,Shopping,4.341,127.0162087,37.48556823
A427,C01,서울,레솔베르,서울 강남구 도산대로57길 13-4,Shopping,4.339,127.0409914,37.52470443
A428,C01,서울,다이소봉천본점,서울 관악구 관악로 195-0,Shopping,4.338,126.9530987,37.48256382
A429,C01,서울,다이소고덕점,서울 강동구 동남로75길 13-7,Shopping,4.336,127.155515,37.5539247
A430,C01,서울,약수시장,서울 중구,Shopping,4.335,126.9975552,37.56380777
A431,C01,서울,신영프라자,서울 강남구 일원로 95-0,Shopping,4.333,127.0835242,37.48573633
A432,C01,서울,다이소덕성여대점,서울 도봉구 삼양로 538-5,Shopping,4.332,127.013317,37.65127809
A433,C01,서울,불광시장,서울 은평구 불광로 12-0,Shopping,4.33,126.9278848,37.60949673
A434,C01,서울,방배종합시장,서울 서초구 방배천로16길 18-0,Shopping,4.329,126.9840211,37.48207758
A435,C01,서울,가락삼익쇼핑센터,서울 송파구 오금로 252-0,Shopping,4.327,127.1211915,37.50557855
A436,C01,서울,남대문꽃시장,서울 중구 남대문시장4길 9-0,Shopping,4.326,126.9776736,37.55966786
A437,C01,서울,다이소노원문화의거리점,서울 노원구 노해로79길 6-19,Shopping,4.324,127.062451,37.65549793
A438,C01,서울,다이소신림3호점,서울 관악구 신림로 318-0,Shopping,4.323,126.9302529,37.48257543
A439,C01,서울,다이소경복궁역점,서울 종로구 사직로 125-0,Shopping,4.321,126.9728543,37.57616399
A440,C01,서울,동아방재,서울 중랑구 용마산로 457-0,Shopping,4.318,127.0980345,37.59214489
A441,C01,서울,쌍문그린스테이트빌딩,서울 도봉구 시루봉로 2-0,Shopping,4.318,127.0287765,37.65117046
A442,C01,서울,암웨이에이스테이션스타시티점,서울 광진구 능동로 110-0,Shopping,4.315,127.0714119,37.54065794
A443,C01,서울,커먼프라자,서울 중구 퇴계로 43-0,Shopping,4.313,126.9773562,37.55820079
A444,C01,서울,신림중앙시장,서울 관악구 조원로16길 27-0,Shopping,4.312,126.9114212,37.48314523
A445,C01,서울,다이소화양2호점,서울 광진구 광나루로 370-0,Shopping,4.31,127.0708939,37.54764091
A446,C01,서울,신풍자원,서울 강동구 초광로294번길 22-1,Shopping,4.309,127.1752717,37.54599212
A447,C01,서울,중화동제일시장,서울 중랑구 동일로139다길 40-0,Shopping,4.307,127.0763654,37.60500957
A448,C01,서울,다이소수유시장점,서울 강북구 도봉로 260-0,Shopping,4.306,127.0244229,37.63170676
A449,C01,서울,다이소강남본점,서울 강남구 강남대로 372-0,Shopping,4.304,127.0290704,37.49603503
A450,C01,서울,코맥스송파점,서울 송파구 백제고분로 349-0,Shopping,4.303,127.1049511,37.50453577
A451,C01,서울,오류시장,서울 구로구 경인로19가길 14-1,Shopping,4.301,126.8437885,37.49668694
A452,C01,서울,아트웍스코리아,서울 동대문구 청계천로 539-0,Shopping,4.3,127.0362647,37.572701
A453,C01,서울,문화골든타워,서울 구로구 경인로 373-0,Shopping,4.298,126.861898,37.49690637
A454,C01,서울,롯데피트인동대문점,서울 중구 을지로 264-0,Shopping,4.297,127.0070643,37.56574346
A455,C01,서울,다이소답십리점,서울 성동구 천호대로 308-0,Shopping,4.295,127.0542338,37.56522486
A456,C01,서울,다이소오류동점,서울 구로구 경인로 209-0,Shopping,4.294,126.8438787,37.49639252
A457,C01,서울,흑석시장,서울 동작구,Shopping,4.292,126.9393151,37.51248204
A458,C01,서울,상일동화훼단지,서울 강동구,Shopping,4.291,127.1237925,37.53019332
A459,C01,서울,다이소군자역점,서울 광진구 천호대로 556-0,Shopping,4.289,127.0797023,37.55673393
A460,C01,서울,다이소용산아이파크몰점,서울 용산구 한강대로23길 55-0,Shopping,4.287,126.9647415,37.5297718
A461,C01,서울,수유전통시장,서울 강북구 수유로12길 100-0,Shopping,4.286,127.022359,37.63055282
A462,C01,서울,솔샘시장,서울 강북구 솔샘로 236-0,Shopping,4.284,127.0188112,37.61977971
A463,C01,서울,중곡동가구거리,서울 광진구,Shopping,4.282,127.0823852,37.53855831
A464,C01,서울,다이소롯데마트청량리점,서울 동대문구 왕산로 214-0,Shopping,4.282,127.0511471,37.58419614
A465,C01,서울,다이소석계역점,서울 노원구 석계로 9-0,Shopping,4.279,127.0644367,37.6156907
A466,C01,서울,다이소서울대입구점,서울 관악구 남부순환로 1840-0,Shopping,4.279,126.9542973,37.48036232
A467,C01,서울,다이소목동역점,서울 양천구 오목로 238-0,Shopping,4.277,126.8639426,37.52589223
A468,C01,서울,다이소롯데마트김포공항점,서울 강서구 하늘길 38-0,Shopping,4.274,126.8029604,37.57136985
A469,C01,서울,고려기프트,서울 도봉구 도봉로191가길 8-0,Shopping,4.274,127.0413589,37.69105932
A470,C01,서울,팀버샵홍대점,서울 마포구 동교로22길 30-0,Shopping,4.272,126.9182318,37.55451183
A471,C01,서울,상도종합상사,서울 동대문구 천호대로67길 28-0,Shopping,4.271,127.0511556,37.56989375
A472,C01,서울,다이소중계역점,서울 노원구 동일로 1308-0,Shopping,4.268,127.0641664,37.64597515
A473,C01,서울,다이소신방화역점,서울 강서구 방화대로 지하 301-0,Shopping,4.268,126.8165246,37.5676834
A474,C01,서울,다이소동묘점,서울 종로구 종로 347-0,Shopping,4.266,127.016,37.57405626
A475,C01,서울,팜스퀘어,서울 은평구 불광로 20-0,Shopping,4.265,126.9289385,37.60973577
A476,C01,서울,다이소대방남부점,서울 동작구 노량진로 4-0,Shopping,4.263,126.9262404,37.51241243
A477,C01,서울,동신철물,서울 서초구 도구로 119-0,Shopping,4.261,126.9858616,37.4870649
A478,C01,서울,다이소등촌시장점,서울 양천구 목동중앙북로 16-1,Shopping,4.26,126.8655231,37.54824911
A479,C01,서울,한강윤활유,서울 영등포구 버드나루로 25-0,Shopping,4.258,126.9120937,37.52103301
A480,C01,서울,다이소강북구청사거리점,서울 강북구 한천로 1038-0,Shopping,4.257,127.0270256,37.64018014
A481,C01,서울,방산지류도매시장,서울 중구 을지로35길 14-0,Shopping,4.255,127.0008428,37.5674052
A482,C01,서울,다이소장한평역점,서울 동대문구 장한로 10-0,Shopping,4.254,127.0654988,37.56235695
A483,C01,서울,다이소성신여대역점,서울 성북구 동소문로20나길 2-0,Shopping,4.252,127.0168243,37.59179616
A484,C01,서울,다이소동대문점,서울 종로구 율곡로 309-0,Shopping,4.251,127.0099782,37.57027743
A485,C01,서울,준액자,서울 강남구 논현로155길 21-0,Shopping,4.249,127.026408,37.5216168
A486,C01,서울,청계천수족관거리,서울 종로구,Shopping,4.248,126.97899,37.57350424
A487,C01,서울,굿윌스토어밀알창동점,서울 도봉구 도봉로130길 13-17,Shopping,4.246,127.0395736,37.65534834
A488,C01,서울,돌곶이시장,서울 성북구 한천로73길 26-0,Shopping,4.245,127.0620067,37.60972998
A489,C01,서울,신월태헌프라자,서울 양천구 곰달래로5길 17-0,Shopping,4.243,126.833604,37.53111136
A490,C01,서울,다이소시흥사거리점,서울 금천구 시흥대로 230-0,Shopping,4.242,126.9012483,37.45442844
A491,C01,서울,조명거리,서울 중구,Shopping,4.24,126.9975552,37.56380777
A492,C01,서울,다이소번동점,서울 강북구 오현로 190-0,Shopping,4.238,127.0394107,37.62847429
A493,C01,서울,렙쇼메이빌딩,서울 강서구 등촌로 223-0,Shopping,4.238,126.8634105,37.54962224
A494,C01,서울,다이소상계1호점,서울 노원구 한글비석로22길 30-1,Shopping,4.235,127.0738712,37.66078396
A495,C01,서울,다이소잠실종합운동장역점,서울 송파구 올림픽로 74-0,Shopping,4.234,127.0788289,37.51137156
A496,C01,서울,다이소아차산역점,서울 광진구 천호대로 667-0,Shopping,4.232,127.0902389,37.55153957
A497,C01,서울,다이소방화점,서울 강서구 방화동로16길 54-7,Shopping,4.231,126.8120902,37.57256288
A498,C01,서울,다이소암사점,서울 강동구 올림픽로 779-0,Shopping,4.229,127.127469,37.55074841
A499,C01,서울,마켓인유성수,서울 성동구 아차산로 166-0,Shopping,4.228,127.0618873,37.54249307
A500,C01,서울,타비,서울 중구 퇴계로 123-0,Shopping,4.226,126.9853643,37.5612659
A501,C01,서울,다이소경동시장점,서울 동대문구 고산자로 441-0,Shopping,4.225,127.0380046,37.578962
A502,C01,서울,우현상품권,서울 중구 남대문로 60-0,Shopping,4.223,126.9819203,37.56251763
A503,C01,서울,유로아시아,서울 강남구 언주로157길 26-0,Shopping,4.222,127.0307707,37.524098
A504,C01,서울,황금오피스텔,서울 동대문구 장한로21길 11-11,Shopping,4.219,127.0691688,37.56940218
A505,C01,서울,다이소신사점,서울 강남구 강남대로 606-0,Shopping,4.217,127.0201564,37.51586783
A506,C01,서울,다이소명동본점,서울 중구 명동길 43-0,Shopping,4.215,126.9847371,37.56399818
A507,C01,서울,릴공식서비스센터관악점,서울 관악구 남부순환로 1673-0,Shopping,4.215,126.9367516,37.484961
A508,C01,서울,조이파티송파점,서울 송파구 백제고분로 349-0,Shopping,4.213,127.1049511,37.50453577
A509,C01,서울,다이소굿모닝마트마포점,서울 마포구 토정로 193-0,Shopping,4.21,126.9325594,37.54583616
A510,C01,서울,준액자,서울 강남구 도산대로25길 37-0,Shopping,4.21,127.0261358,37.52194636
A511,C01,서울,법성프라자,서울 노원구 중계로 219-0,Shopping,4.208,127.0756717,37.65049739
A512,C01,서울,화인꽃프라자,서울 강동구 천호대로 1255-1,Shopping,4.206,127.1502223,37.53761213
A513,C01,서울,청량리농수산물시장,서울 동대문구,Shopping,4.205,127.039657,37.57452298
A514,C01,서울,다이소안암점,서울 성북구 고려대로24길 51-0,Shopping,4.203,127.029709,37.58392949
A515,C01,서울,두타면세점,서울 중구 장충단로 275-0,Shopping,4.201,127.0087751,37.56888494
A516,C01,서울,다이소화곡대림점,서울 강서구 월정로30길 21-0,Shopping,4.201,126.8370795,37.53432016
A517,C01,서울,다이소대신시장점,서울 영등포구 도신로 235-0,Shopping,4.199,126.9169459,37.51249375
A518,C01,서울,미소공영,서울 동대문구,Shopping,4.197,127.039657,37.57452298
A519,C01,서울,다이소롯데슈퍼가락점,서울 송파구 오금로36길 8-0,Shopping,4.196,127.1253297,37.50307619
A520,C01,서울,다이소연신내점,서울 은평구 연서로 253-0,Shopping,4.194,126.9227093,37.61993087
A521,C01,서울,다이소아현역점,서울 마포구 신촌로 270-0,Shopping,4.193,126.9557107,37.5571213
A522,C01,서울,성북시장,서울 강북구,Shopping,4.19,127.0255381,37.63975133
A523,C01,서울,풍림프라자쇼핑,서울 강남구 남부순환로 2942-0,Shopping,4.19,127.0623213,37.49364576
A524,C01,서울,인사동골동품거리,서울 종로구,Shopping,4.188,126.97899,37.57350424
A525,C01,서울,삼정펄프,서울 종로구 혜화로 20-0,Shopping,4.186,127.0000488,37.5874207
A526,C01,서울,다이소봉천2호점,서울 관악구 남부순환로 1731-0,Shopping,4.186,126.9424763,37.48258066
A527,C01,서울,다이소건대입구점,서울 광진구 아차산로 225-0,Shopping,4.183,127.068481,37.54091808
A528,C01,서울,세종프라자,서울 강동구 동남로75길 29-0,Shopping,4.183,127.1545288,37.55415638
A529,C01,서울,삼덕정판,서울 성동구 연무장5길 9-29,Shopping,4.18,127.0520482,37.54444622
A530,C01,서울,봉주상회,서울 강남구 도산대로25길 11-0,Shopping,4.179,127.0272481,37.52058802
A531,C01,서울,수유재래시장,서울 강북구 도봉로71길 2-0,Shopping,4.177,127.0235696,37.63155502
A532,C01,서울,다이소도봉점,서울 도봉구 도봉로153길 30-0,Shopping,4.176,127.0417118,37.67005144
A533,C01,서울,조이파티홍대점,서울 마포구 잔다리로 21-1,Shopping,4.174,126.9205448,37.55064966
A534,C01,서울,다이소금호금남시장점,서울 성동구 독서당로 292-0,Shopping,4.173,127.0215454,37.54788511
A535,C01,서울,북부법조타운,서울 도봉구 도봉로164길 33-25,Shopping,4.171,127.0471941,37.67648534
A536,C01,서울,보마켓,서울 용산구 소월로 377-0,Shopping,4.17,127.0015077,37.54430947
A537,C01,서울,다이소동덕여대점,서울 성북구 장월로1길 113-0,Shopping,4.168,127.0428049,37.60415597
A538,C01,서울,모웰상봉점,서울 중랑구 망우로 316-0,Shopping,4.167,127.087565,37.59652239
A539,C01,서울,창동골목시장,서울 도봉구 덕릉로58길 14-0,Shopping,4.165,127.0390584,37.63846607
A540,C01,서울,다이소신논현역점,서울 강남구 강남대로 470-0,Shopping,4.164,127.0250552,37.50434791
A541,C01,서울,다이소태릉시장점,서울 중랑구 동일로 775-0,Shopping,4.161,127.0794667,37.5996887
A542,C01,서울,태흥종합유통,서울 영등포구 도림로 275-0,Shopping,4.161,126.9039132,37.50245533
A543,C01,서울,CIZN,서울 종로구 지봉로 19-0,Shopping,4.159,127.015206,37.57173963
A544,C01,서울,청량리시장,서울 동대문구 홍릉로 13-0,Shopping,4.157,127.044387,37.58144427
A545,C01,서울,다이소정릉시장점,서울 성북구 보국문로 9-0,Shopping,4.157,127.0111582,37.60544387
A546,C01,서울,동방철물건재,서울 마포구 동교로 101-1,Shopping,4.154,126.9133517,37.55470467
A547,C01,서울,다이소둔촌동역점,서울 강동구 양재대로 1355-0,Shopping,4.154,127.1356161,37.52739525
A548,C01,서울,우리시장,서울 영등포구 도림로64길 12-3,Shopping,4.151,126.9046929,37.49670808
A549,C01,서울,다이소회기역점,서울 동대문구 회기로 187-0,Shopping,4.15,127.0567104,37.59014348
A550,C01,서울,우창프라자,서울 노원구 상계로1길 38-11,Shopping,4.148,127.0620902,37.65796924
A551,C01,서울,다이소우장산역점,서울 강서구 강서로 267-0,Shopping,4.147,126.8359413,37.54960006
A552,C01,서울,와이제이요요클럽,서울 송파구 양재대로60길 5-0,Shopping,4.145,127.1170196,37.49859041
A553,C01,서울,선우불교전시장,서울 도봉구 노해로 141-0,Shopping,4.144,127.0257275,37.64761976
A554,C01,서울,신성골목시장,서울 광진구,Shopping,4.141,127.0823852,37.53855831
A555,C01,서울,여의쇼핑센터,서울 영등포구 국제금융로7길 15-0,Shopping,4.141,126.9319811,37.52316097
A556,C01,서울,우토파크프라자,서울 노원구 노원로 3-0,Shopping,4.139,127.0866631,37.62199302
A557,C01,서울,르라보이태원지점,서울 용산구 이태원로 259-0,Shopping,4.137,127.0010202,37.53781192
A558,C01,서울,비앤씨마켓고속터미널점,서울 서초구 신반포로 194-0,Shopping,4.137,127.0068344,37.50643574
A559,C01,서울,화양시장,서울 광진구,Shopping,4.134,127.0823852,37.53855831
A560,C01,서울,경동야채도매시장,서울 동대문구 고산자로40길 23-0,Shopping,4.134,127.0398884,37.58089419
A561,C01,서울,미트대명사,서울 성동구 청계천로10나길 48-0,Shopping,4.131,127.0355587,37.57020239
A562,C01,서울,금호종합시장,서울 성동구,Shopping,4.13,127.0369301,37.56342721
A563,C01,서울,공감모,서울 강서구 마곡서로 56-0,Shopping,4.128,126.8239211,37.55900042
A564,C01,서울,아시아종합타일상사,서울 양천구 남부순환로72길 11-0,Shopping,4.127,126.8365072,37.5200403
A565,C01,서울,신세대프라자,서울 중랑구 겸재로49길 18-0,Shopping,4.125,127.0904927,37.58986284
A566,C01,서울,르라보가로수길지점,서울 강남구 압구정로10길 28-0,Shopping,4.124,127.0219274,37.52176116
A567,C01,서울,다이소까치산2호점,서울 강서구 강서로 34-0,Shopping,4.122,126.8474429,37.53099372
A568,C01,서울,우들,서울 성북구 성북로 34-0,Shopping,4.12,127.0039745,37.59103542
A569,C01,서울,유베이스선릉센터,서울 강남구 테헤란로 312-0,Shopping,4.12,127.0450463,37.50293857
A570,C01,서울,동성철물건재,서울 강남구 역삼로 516-0,Shopping,4.118,127.059942,37.50337984
A571,C01,서울,엠플라자,서울 중구 명동8길 27-0,Shopping,4.115,126.9851668,37.56253123
A572,C01,서울,고려상사,서울 중구 동호로 377-0,Shopping,4.115,127.0018662,37.56822248
A573,C01,서울,방산시장,서울 중구 을지로33길 18-1,Shopping,4.113,126.9997025,37.56741007
A574,C01,서울,석촌시장,서울 송파구 송파대로37길 40-0,Shopping,4.112,127.1078047,37.50055824
A575,C01,서울,가락동농수산물도매시장직판시장,서울 송파구 양재대로 932-0,Shopping,4.11,127.1087136,37.49453769
A576,C01,서울,중앙도재,서울 서대문구 연희로28길 21-0,Shopping,4.109,126.9368036,37.57470437
A577,C01,서울,다이소한성대입구역2호점,서울 성북구 동소문로 14-0,Shopping,4.107,127.007754,37.58891898
A578,C01,서울,방배쇼핑센터,서울 서초구 방배로 32-0,Shopping,4.106,127.0003739,37.47783995
A579,C01,서울,다이소목동사거리점,서울 강서구 등촌로5길 2-0,Shopping,4.103,126.8632979,37.53348476
A580,C01,서울,다이소개봉역점,서울 구로구 경인로40길 41-0,Shopping,4.103,126.8590294,37.49502637
A581,C01,서울,용두시장,서울 동대문구 한빛로 62-1,Shopping,4.1,127.0294892,37.57868675
A582,C01,서울,쿤달본사,서울 강남구 학동로23길 13-0,Shopping,4.1,127.0280403,37.51420333
A583,C01,서울,한국앵글,서울 양천구 신정중앙로 4-0,Shopping,4.098,126.8520489,37.5277794
A584,C01,서울,릴공식서비스센터광진점,서울 광진구 동일로 462-0,Shopping,4.096,127.0803241,37.57131973
A585,C01,서울,아이코스서비스센터강남점,서울 서초구 서초대로74길 23-0,Shopping,4.095,127.027091,37.49561193
A586,C01,서울,이강장식철물,서울 강서구 강서로 494-0,Shopping,4.093,126.8417644,37.56949894
A587,C01,서울,신사상가,서울 강남구 압구정로29길 72-1,Shopping,4.092,127.028402,37.53228798
A588,C01,서울,그린홈넷,서울 성동구 뚝섬로3길 16-0,Shopping,4.09,127.0496796,37.54162405
A589,C01,서울,SK매직강남서비스센터,서울 송파구 양재대로60길 5-0,Shopping,4.089,127.1170196,37.49859041
A590,C01,서울,용답시장,서울 성동구 용답25다길 24-0,Shopping,4.087,127.0533678,37.56324856
A591,C01,서울,시계골목,서울 종로구,Shopping,4.086,126.97899,37.57350424
A592,C01,서울,알맹상점,서울 마포구 월드컵로 49-0,Shopping,4.084,126.9116058,37.55370183
A593,C01,서울,개화동상사마을회관,서울 강서구 개화길 52-0,Shopping,4.083,126.8015628,37.58678683
A594,C01,서울,영동전통시장,서울 강남구 학동로4길 35-0,Shopping,4.08,127.0239725,37.50918473
A595,C01,서울,경원프라자,서울 강서구 공항대로41길 75-0,Shopping,4.08,126.8463601,37.56114864
A596,C01,서울,삼양휠타,서울 영등포구 버드나루로 48-0,Shopping,4.078,126.9113767,37.52285962
A597,C01,서울,대일천막,서울 종로구 난계로25길 15-0,Shopping,4.076,127.0222172,37.57242175
A598,C01,서울,논현종합시장,서울 강남구 봉은사로33길 33-0,Shopping,4.075,127.0347588,37.51001764
A599,C01,서울,다이소하나로클럽양재점,서울 서초구 청계산로 10-0,Shopping,4.073,127.0435302,37.4632288
A600,C01,서울,두원리퍼브서울본점,서울 노원구 노해로 507-0,Shopping,4.071,127.0638891,37.65542724
A601,C01,서울,철도직원자녀기숙사,서울 구로구 경인로 248-29,Shopping,4.071,126.8490707,37.49663128
A602,C01,서울,채소시장,서울 송파구 양재대로 932-0,Shopping,4.069,127.1087136,37.49453769
A603,C01,서울,십화점,서울 강남구 선릉로162길 5-0,Shopping,4.067,127.041133,37.52716988
A604,C01,서울,노량진수산시장구시장,서울 동작구 노들로 688-0,Shopping,4.066,126.9445243,37.51501192
A605,C01,서울,한우선수촌,서울 성동구 청계천로10가길 102-0,Shopping,4.064,127.0374347,37.57152303
A606,C01,서울,서정미용가구,서울 금천구 시흥대로 480-0,Shopping,4.06,126.8990627,37.47634901
A607,C01,서울,쌍문시장,서울 도봉구 도봉로113길 23-0,Shopping,4.06,127.0328357,37.64824355
A608,C01,서울,다이소외대역점,서울 동대문구 휘경로 15-0,Shopping,4.058,127.0619628,37.59590016
A609,C01,서울,동원골목시장,서울 중랑구 상봉로 49-0,Shopping,4.057,127.0933756,37.59025901
A610,C01,서울,강남시장,서울 강남구,Shopping,4.055,127.0473774,37.51733193
A611,C01,서울,오목교중앙시장,서울 양천구 신목로4길 37-0,Shopping,4.054,126.8764839,37.52120161
A612,C01,서울,아벨티앤비,서울 구로구 오리로 1356-0,Shopping,4.052,126.8293439,37.50250124
A613,C01,서울,다이소남성역점,서울 동작구 사당로17가길 16-0,Shopping,4.05,126.9730571,37.48401429
A614,C01,서울,삼우아이엠씨서울사무소,서울 송파구 중대로 269-0,Shopping,4.05,127.1306354,37.50499634
A615,C01,서울,아임반,서울 동대문구 장한로10길 17-0,Shopping,4.047,127.0685266,37.56521545
A616,C01,서울,배전사,서울 강동구 올림픽로98길 15-0,Shopping,4.046,127.1290278,37.55140499
A617,C01,서울,가락동농수산물도매시장축산시장,서울 송파구 양재대로 932-0,Shopping,4.044,127.1087136,37.49453769
A618,C01,서울,다이소염창역점,서울 강서구 공항대로 627-0,Shopping,4.043,126.8745387,37.54728722
A619,C01,서울,브레드가든터미널점,서울 서초구 신반포로 194-0,Shopping,4.041,127.0068344,37.50643574
A620,C01,서울,다이소 대지시장점,서울 강북구 솔샘로 239-0,Shopping,4.04,127.0194424,37.62004297
A621,C01,서울,현대백화점면세점본사,서울 강남구 영동대로82길 19-0,Shopping,4.038,127.0661306,37.50738592
A622,C01,서울,마담주,서울 강남구 삼성로149길 3-10,Shopping,4.037,127.047128,37.52284842
A623,C01,서울,강서농수산물,서울 강서구,Shopping,4.035,126.8495338,37.55096462
A624,C01,서울,강동종합시장,서울 강동구 구천면로47길 57-0,Shopping,4.034,127.1345748,37.55071061
A625,C01,서울,챕터원에디트,서울 서초구 나루터로 65-0,Shopping,4.032,127.0168803,37.51555524
A626,C01,서울,비노클럽,서울 마포구 월드컵로42길 40-0,Shopping,4.031,126.8807347,37.58026126
A627,C01,서울,아우토반키즈카동대문점,서울 동대문구 장한로28가길 122-8,Shopping,4.029,127.073782,37.57859431
A628,C01,서울,마장축산물시장,서울 성동구 마장로35길 60-0,Shopping,4.028,127.0409508,37.57062916
A629,C01,서울,다이소신림점,서울 관악구 호암로 605-0,Shopping,4.026,126.9336227,37.47138017
A630,C01,서울,슬로우파마씨,서울 성동구 아차산로11가길 26-0,Shopping,4.024,127.0628745,37.54554756
A631,C01,서울,다이소성대시장점,서울 동작구 상도로 102-0,Shopping,4.023,126.9317763,37.4999427
A632,C01,서울,릴공식서비스센터미니멀리움강남점,서울 서초구 강남대로 463-0,Shopping,4.021,127.0244468,37.50344757
A633,C01,서울,다이소중계동점,서울 노원구 한글비석로 242-0,Shopping,4.02,127.0769736,37.6492349
A634,C01,서울,유영상가,서울 중랑구 봉우재로70길 96-0,Shopping,4.017,127.0967409,37.59139948
A635,C01,서울,대림프라자,서울 구로구 경인로 319-0,Shopping,4.017,126.8556011,37.49759938
A636,C01,서울,다이소굿모닝마트썬프라자점,서울 영등포구 신길로 39-0,Shopping,4.017,126.907785,37.49596657
A637,C01,서울,보자기카드,서울 중구 동호로25길 20-0,Shopping,4.014,127.0018696,37.55886356
A638,C01,서울,다이소불광역점,서울 은평구 통일로67길 3-0,Shopping,4.012,126.9288385,37.61092106
A639,C01,서울,가은인테리어필름,서울 은평구 연서로 50-1,Shopping,4.011,126.9159852,37.60361991
A640,C01,서울,TWLSHOP,서울 종로구 율곡로 187-0,Shopping,4.008,126.999617,37.57613494
A641,C01,서울,제일상사사옥,서울 강서구 수명로1길 11-0,Shopping,4.008,126.8229232,37.5499549
A642,C01,서울,다이소코엑스몰점,서울 강남구 영동대로 517-0,Shopping,4.006,127.0597581,37.51311015
A643,C01,서울,VELVETTRUNK,서울 성동구 연무장길 25-0,Shopping,4.005,127.052377,37.54348111
A644,C01,서울,무신사본사,서울 성동구 아차산로 38-0,Shopping,4.003,127.0483978,37.54658396
A645,C01,서울,다이소동서울터미널점,서울 광진구 강변역로 50-0,Shopping,4.002,127.0941841,37.53453851
A646,C01,서울,도림시장,서울 영등포구 도영로 50-0,Shopping,4,126.8984536,37.50989558
A647,C01,서울,다이소대학로점,서울 종로구 대학로 140-0,Shopping,3.998,127.0019465,37.58359327
A648,C01,서울,인현시장,서울 중구,Shopping,3.997,126.9975552,37.56380777
A649,C01,서울,디월트고객체험센터,서울 서초구 효령로 336-0,Shopping,3.995,127.0209888,37.48602619
A650,C01,서울,목동한강팰리스,서울 양천구 등촌로 114-0,Shopping,3.992,126.8640552,37.54014367
A651,C01,서울,다이소한티역점,서울 강남구 선릉로 227-0,Shopping,3.992,127.0527361,37.49583915
A652,C01,서울,조양시장,서울 광진구 아차산로30길 39-0,Shopping,3.992,127.0674893,37.53899664
A653,C01,서울,영진시장,서울 마포구 동교로12길 21-0,Shopping,3.989,126.9126921,37.55346487
A654,C01,서울,다이소방배역점,서울 서초구 효령로 117-0,Shopping,3.988,126.9969415,37.48146485
A655,C01,서울,다이소이수점,서울 동작구 동작대로 123-0,Shopping,3.986,126.9818723,37.48776416
A656,C01,서울,릴서비스센터1호점,서울 강남구 논현로28길 49-0,Shopping,3.985,127.0455849,37.48486984
A657,C01,서울,더브리티시몰,서울 강서구 공항대로45길 63-0,Shopping,3.983,126.8560012,37.557869
A658,C01,서울,태영볼트,서울 도봉구 노해로 166-0,Shopping,3.982,127.0275109,37.64910193
A659,C01,서울,종로벽지,서울 중구 을지로 199-0,Shopping,3.98,127.0000902,37.56694173
A660,C01,서울,신반포1차쇼핑센터,서울 서초구 신반포로15길 29-0,Shopping,3.979,126.9946958,37.50547058
A661,C01,서울,부티크와인,서울 강남구 도산대로 322-0,Shopping,3.977,127.0371661,37.52219965
A662,C01,서울,다이소사당1호점,서울 동작구 동작대로 43-0,Shopping,3.976,126.9814562,37.480418
A663,C01,서울,롯데월드쇼핑몰,서울 송파구 올림픽로 240-0,Shopping,3.974,127.0981418,37.51130961
A664,C01,서울,원더베이프전자담배마곡점,서울 강서구 공항대로 247-0,Shopping,3.972,126.8352392,37.55931354
A665,C01,서울,서울산소가스,서울 종로구 돈화문로10길 16-0,Shopping,3.972,126.9925517,37.57241612
A666,C01,서울,다이소롯데마트서울역점,서울 중구 청파로 426-0,Shopping,3.969,126.9695123,37.55744688
A667,C01,서울,다이소종암점,서울 성북구 종암로19길 6-0,Shopping,3.968,127.0340487,37.59857277
A668,C01,서울,영스퀘어,서울 강서구 화곡로68길 3-0,Shopping,3.966,126.8547379,37.55958367
A669,C01,서울,삼성패션아울렛NC신구로점,서울 구로구 구로중앙로 152-0,Shopping,3.966,126.882773,37.50116014
A670,C01,서울,다이소서대문진로마트점,서울 서대문구 통일로 139-1,Shopping,3.963,126.9650126,37.56676247
A671,C01,서울,다이소동부시장점,서울 중랑구 망우로 212-0,Shopping,3.963,127.0762279,37.59371997
A672,C01,서울,다이소이대역점,서울 서대문구 신촌로 183-0,Shopping,3.96,126.9463217,37.55707136
A673,C01,서울,자양골목시장,서울 광진구 자양로15길 80-0,Shopping,3.959,127.0792262,37.53498612
A674,C01,서울,새석관시장,서울 성북구 화랑로 202-0,Shopping,3.956,127.0526596,37.60825455
A675,C01,서울,다이소하나로마트창동점,서울 도봉구 마들로11길 20-0,Shopping,3.956,127.0508313,37.65511059
A676,C01,서울,다이소GS슈퍼북가좌점,서울 서대문구 응암로 54-0,Shopping,3.954,126.9102045,37.57789224
A677,C01,서울,상도시장,서울 동작구 상도로37길 62-0,Shopping,3.953,126.9521015,37.49874471
A678,C01,서울,다이소홍제역점,서울 서대문구 통일로 451-0,Shopping,3.951,126.9438499,37.58867018
A679,C01,서울,수유북부시장,서울 강북구 삼양로91길 9-0,Shopping,3.95,127.0166164,37.63673994
A680,C01,서울,울트라브이,서울 성동구 상원길 19-0,Shopping,3.948,127.0487728,37.54587886
A681,C01,서울,방천시장,서울 강북구 월계로7길 61-0,Shopping,3.946,127.0339205,37.61279475
A682,C01,서울,다이소청량리역점,서울 동대문구 왕산로 195-0,Shopping,3.945,127.0446392,37.58024297
A683,C01,서울,대호그린푸드,서울 성동구 청계천로10나길 51-0,Shopping,3.943,127.0356105,37.57046277
A684,C01,서울,다이소종각점,서울 종로구 종로 66-0,Shopping,3.942,126.9847054,37.56991565
A685,C01,서울,다이소엔터식스왕십리역점,서울 성동구 왕십리광장로 17-0,Shopping,3.94,127.0383942,37.56144175
A686,C01,서울,피카소24,서울 강남구 강남대로84길 15-0,Shopping,3.938,127.0298357,37.49700342
A687,C01,서울,삼익맨션,서울 강동구 상암로 214-0,Shopping,3.938,127.146222,37.54630746
A688,C01,서울,와인컬렉터,서울 강남구 테헤란로 329-0,Shopping,3.936,127.0476936,37.50453213
A689,C01,서울,대일종합상사,서울 관악구 봉천로 290-0,Shopping,3.934,126.9328193,37.48683238
A690,C01,서울,한솔사이언스,서울 영등포구 국회대로38길 6-0,Shopping,3.933,126.8989823,37.52654062
A691,C01,서울,다이소신림역1호점,서울 관악구 신림로 354-0,Shopping,3.931,126.9299458,37.48598467
A692,C01,서울,릴미니멀리움현대동대문점,서울 중구 장충단로13길 20-0,Shopping,3.929,127.0076665,37.56873455
A693,C01,서울,엘로사리움,서울 송파구 위례성대로22길 14-0,Shopping,3.929,127.1307216,37.50910861
A694,C01,서울,합정전자담배스토어,서울 마포구 독막로 34-0,Shopping,3.927,126.9171757,37.54799705
A695,C01,서울,무진전자,서울 영등포구 은행로 3-0,Shopping,3.925,126.9196658,37.52751174
A696,C01,서울,몽마르뜨액자,서울 강남구 학동로 443-0,Shopping,3.924,127.0493769,37.51894048
A697,C01,서울,다이소혜화점,서울 종로구 창경궁로 239-0,Shopping,3.922,126.9987059,37.58330937
A698,C01,서울,동하자원,서울 관악구 봉천로 167-0,Shopping,3.92,126.9207961,37.49038121
A699,C01,서울,신세계면세점강남점,서울 서초구 신반포로 176-0,Shopping,3.919,127.002413,37.50393518
A700,C01,서울,공항시장,서울 강서구 방화동로3가길 10-0,Shopping,3.917,126.8090319,37.56318781
A701,C01,서울,케이스티파이,서울 강남구 가로수길 45-0,Shopping,3.916,127.0226857,37.52100732
A702,C01,서울,동우식자재,서울 송파구 가락로 19-0,Shopping,3.914,127.0986064,37.49850865
A703,C01,서울,다이소옥수역점,서울 성동구 동호로 21-0,Shopping,3.911,127.0189654,37.54098777
A704,C01,서울,대한소방,서울 동대문구 천호대로16길 20-0,Shopping,3.911,127.0311753,37.57291049
A705,C01,서울,가발나라홍대점,서울 마포구 잔다리로 39-0,Shopping,3.911,126.9189653,37.55173879
A706,C01,서울,다이소구로시장점,서울 구로구 구로동로26길 82-0,Shopping,3.908,126.8886656,37.49001283
A707,C01,서울,석산도재,서울 마포구 희우정로 82-1,Shopping,3.907,126.9034617,37.55322838
A708,C01,서울,헤븐센스,서울 강남구 학동로82길 17-0,Shopping,3.905,127.0518207,37.51785922
A709,C01,서울,컴뱃밀리터리샵,서울 구로구 시흥대로 525-0,Shopping,3.903,126.8989291,37.48038812
A710,C01,서울,다이소롯데마트강변점,서울 광진구 광나루로56길 85-0,Shopping,3.903,127.0956922,37.53572518
A711,C01,서울,경동민물,서울 동대문구 고산자로 458-0,Shopping,3.901,127.0387004,37.5804913
A712,C01,서울,창동시장,서울 도봉구 도봉로110나길 31-0,Shopping,3.899,127.0349694,37.64760126
A713,C01,서울,쌍용기숙사,서울 서대문구 세무서8길 13-0,Shopping,3.898,126.9475063,37.59093038
A714,C01,서울,잠실화방,서울 송파구 가락로 145-0,Shopping,3.896,127.1117486,37.50266112
A715,C01,서울,로데오프라자,서울 강남구 삼성로 772-0,Shopping,3.894,127.0480223,37.52360238
A716,C01,서울,모투스엔실버불렛사옥,서울 용산구 녹사평대로11길 58-0,Shopping,3.893,126.9934901,37.52074983
A717,C01,서울,모아세라믹,서울 관악구 봉천로 286-0,Shopping,3.891,126.932505,37.48699285
A718,C01,서울,제일종합공구,서울 강동구 구천면로 172-0,Shopping,3.891,127.1237476,37.54134117
A719,C01,서울,우리택시미터,서울 성북구 한천로76길 45-0,Shopping,3.888,127.0653884,37.6113848
A720,C01,서울,릴공식서비스센터종로점,서울 서대문구 충정로 60-0,Shopping,3.887,126.9661549,37.56386259
A721,C01,서울,우성대원프라자,서울 양천구 목동중앙로 135-0,Shopping,3.885,126.8751255,37.54039655
A722,C01,서울,아벨세라믹스,서울 구로구 오리로 1356-0,Shopping,3.885,126.8293439,37.50250124
A723,C01,서울,성민톨스,서울 동대문구 청계천로 463-0,Shopping,3.882,127.0287446,37.57061997
A724,C01,서울,병민 윤활유,서울 강동구 천호대로168라길 14-0,Shopping,3.881,127.1311092,37.53421686
A725,C01,서울,원당종합시장,서울 관악구 남부순환로248길 35-0,Shopping,3.879,126.965908,37.47441669
A726,C01,서울,래미안파크팰리스상가,서울 송파구 동남로 227-0,Shopping,3.878,127.1323876,37.49744622
A727,C01,서울,가발백화점,서울 동대문구 왕산로 238-0,Shopping,3.876,127.0485089,37.58244104
A728,C01,서울,세라듀,서울 강남구 논현로 332-0,Shopping,3.875,127.0399947,37.49491639
A729,C01,서울,메이크업매직,서울 강남구 논현로167길 16-0,Shopping,3.872,127.0269021,37.52478768
A730,C01,서울,미성동도깨비시장,서울 관악구 미성길 15-0,Shopping,3.869,126.9159593,37.47434757
A731,C01,서울,정관장서울위례광장로본점,서울 송파구 위례광장로 136-0,Shopping,3.869,127.1423748,37.47719582
A732,C01,서울,깡통시장,서울 동대문구 경동시장로 50-0,Shopping,3.866,127.0406764,37.58347635
A733,C01,서울,태평미용재료,서울 서대문구 성산로 320-0,Shopping,3.866,126.925754,37.56601649
A734,C01,서울,모던하우스강서점,서울 강서구 강서로56길 17-0,Shopping,3.864,126.8404988,37.55993353
A735,C01,서울,킹스매너,서울 종로구 경희궁2길 5-5,Shopping,3.861,126.9704668,37.5732987
A736,C01,서울,동아다누프라자,서울 성북구 장월로3길 1-0,Shopping,3.859,127.0470135,37.60787636
A737,C01,서울,대원씨티에스원효로지사,서울 용산구 원효로 142-0,Shopping,3.858,126.9590997,37.53408217
A738,C01,서울,청원민물고기직판장,서울 동작구 노량진로 86-0,Shopping,3.856,126.9353006,37.51306322
A739,C01,서울,로우로우홍대점,서울 마포구 어울마당로 36-0,Shopping,3.854,126.920475,37.54827602
A740,C01,서울,하카전자담배강동점,서울 강동구 양재대로 1599-0,Shopping,3.854,127.1433313,37.54839727
A741,C01,서울,릴미니멀리움,서울 서초구 강남대로 463-0,Shopping,3.852,127.0244468,37.50344757
A742,C01,서울,조말론런던한남부티크,서울 용산구 이태원로 267-0,Shopping,3.85,127.0011331,37.53849875
A743,C01,서울,현대아성종합쇼핑,서울 관악구 신림로29길 8-0,Shopping,3.847,126.9328111,37.4755685
A744,C01,서울,강변듀얼파크,서울 광진구 광나루로56길 34-0,Shopping,3.847,127.0966352,37.53814044
A745,C01,서울,형제상회,서울 동대문구 천호대로12길 8-0,Shopping,3.847,127.0286338,37.573493
A746,C01,서울,마포떡방,서울 마포구 큰우물로 43-0,Shopping,3.844,126.9436302,37.54295183
A747,C01,서울,서울가발박사서울점,서울 영등포구 경인로 828-0,Shopping,3.843,126.9049021,37.51559718
A748,C01,서울,박미종합시장,서울 금천구 시흥대로18길 16-0,Shopping,3.839,126.9044004,37.44009392
A749,C01,서울,웨딩쇼핑몰,서울 서초구 신반포로 162-0,Shopping,3.839,127.0022805,37.50488844
A750,C01,서울,아웃도어파크,서울 강동구 양재대로 1421-0,Shopping,3.839,127.137774,37.53312789
A751,C01,서울,이랜드 주니어NC백화점강서점,서울 강서구 강서로56길 17-0,Shopping,3.836,126.8404988,37.55993353
A752,C01,서울,신수시장,서울 마포구 토정로17길 17-0,Shopping,3.834,126.9356054,37.54544016
A753,C01,서울,GBH쇼룸,서울 서초구 방배로42길 50-2,Shopping,3.834,126.9906219,37.49399529
A754,C01,서울,백운시장,서울 도봉구 삼양로154길 42-0,Shopping,3.832,127.0156249,37.65564478
A755,C01,서울,장안기물,서울 노원구 상계로27길 19-0,Shopping,3.83,127.0700909,37.65932127
A756,C01,서울,조이파티목동점,서울 양천구 목동로 224-0,Shopping,3.829,126.864612,37.52839679
A757,C01,서울,역삼상가종합시장,서울 강남구,Shopping,3.827,127.0473774,37.51733193
A758,C01,서울,디지털명품존,서울 서초구 강남대로95길 19-4,Shopping,3.826,127.0187477,37.51357347
A759,C01,서울,SF소방,서울 강서구 양천로1길 68-0,Shopping,3.823,126.807549,37.57412374
A760,C01,서울,유성바이크,서울 동대문구 사가정로 96-0,Shopping,3.823,127.0560297,37.57618598
A761,C01,서울,다이소서울시청광장점,서울 중구 세종대로 93-0,Shopping,3.821,126.9766271,37.56470342
A762,C01,서울,사가정시장,서울 중랑구 면목로44길 16-0,Shopping,3.818,127.0893792,37.58108117
A763,C01,서울,천지오뚜기,서울 송파구 송파대로22길 4-11,Shopping,3.818,127.1228862,37.48703769
A764,C01,서울,하오랜드빌딩,서울 강서구 국회대로 209-0,Shopping,3.818,126.85819,37.52940207
A765,C01,서울,이어폰샵,서울 종로구 대학로10길 15-11,Shopping,3.815,127.0027716,37.58226095
A766,C01,서울,망원양경회관,서울 마포구 월드컵로 65-0,Shopping,3.813,126.9108693,37.55486176
A767,C01,서울,다이소고객사랑마트점,서울 강남구 논현로10길 29-0,Shopping,3.81,127.0503954,37.4753216
A768,C01,서울,팍스키,서울 성동구 성수일로 1-0,Shopping,3.81,127.0478502,37.54086545
A769,C01,서울,답십리시장,서울 동대문구,Shopping,3.81,127.039657,37.57452298
A770,C01,서울,한국의집,서울 중구 소공로 106-0,Shopping,3.807,126.9801845,37.56448413
A771,C01,서울,김포상회,서울 영등포구 영등포로45길 25-2,Shopping,3.805,126.9084156,37.52180427
A772,C01,서울,뉴목동프라자,서울 양천구 신정로 312-0,Shopping,3.805,126.8555049,37.51328007
A773,C01,서울,암웨이반포점,서울 서초구 신반포로 23-0,Shopping,3.802,126.9872318,37.50174714
A774,C01,서울,헤븐센스성수연무장점,서울 성동구 연무장길 30-0,Shopping,3.802,127.0527987,37.54312025
A775,C01,서울,대건비니루상사,서울 중구 을지로 197-3,Shopping,3.799,127.0000244,37.56692975
A776,C01,서울,다이소롯데마트중계점,서울 노원구 노원로 330-0,Shopping,3.799,127.0709409,37.64679053
A777,C01,서울,대도지물,서울 중구 남대문시장길 15-0,Shopping,3.796,126.9768226,37.56025794
A778,C01,서울,메디-바이오플렉스,서울 양천구 중앙로 262-0,Shopping,3.796,126.8534025,37.51984678
A779,C01,서울,모리함,서울 중구 소공로 36-0,Shopping,3.794,126.9831679,37.55874191
A780,C01,서울,여우가발,서울 도봉구 도봉로 608-0,Shopping,3.792,127.0410701,37.65875886
A781,C01,서울,대일냉동부품,서울 영등포구 국회대로53길 2-0,Shopping,3.79,126.9071735,37.52563715
A782,C01,서울,C&J오피스텔,서울 동대문구 이문로 164-0,Shopping,3.79,127.0622553,37.60110152
A783,C01,서울,다이소망원점,서울 마포구 망원로8길 46-0,Shopping,3.787,126.9062987,37.55540711
A784,C01,서울,하나프라자,서울 마포구 토정로37길 41-0,Shopping,3.785,126.9467095,37.54270972
A785,C01,서울,미건타일,서울 강서구 양천로 674-0,Shopping,3.785,126.8711442,37.55126903
A786,C01,서울,하카전자담배가산점,서울 금천구 벚꽃로38길 5-0,Shopping,3.781,126.8833258,37.48190996
A787,C01,서울,삼성안전장비,서울 중구 청계천로 128-0,Shopping,3.781,126.9916767,37.56800146
A788,C01,서울,경북수출포장,서울 중구 동호로 385-2,Shopping,3.781,127.0017284,37.56886552
A789,C01,서울,탑제이앤에이취,서울 서초구 신반포로 313-0,Shopping,3.778,127.0180689,37.51040186
A790,C01,서울,다이소선유도역점,서울 영등포구,Shopping,3.777,126.8962739,37.52636357
A791,C01,서울,고향할인마트,서울 은평구 통일로83길 6-29,Shopping,3.775,126.9188102,37.62145831
A792,C01,서울,양지종합시장,서울 강동구 고덕로27길 15-9,Shopping,3.774,127.1372346,37.5554204
A793,C01,서울,띵굴스토어성수점,서울 성동구 성수이로14길 14-0,Shopping,3.772,127.0569083,37.54140761
A794,C01,서울,굿윌스토어본점,서울 송파구 새말로10길 19-0,Shopping,3.771,127.1277404,37.48113022
A795,C01,서울,성경축산,서울 강동구 천호대로176길 47-0,Shopping,3.768,127.1357244,37.5323263
A796,C01,서울,릴공식서비스센터강동점,서울 강동구 양재대로 1544-0,Shopping,3.768,127.1424791,37.54341938
A797,C01,서울,킹마네킹,서울 중구 마장로1길 18-0,Shopping,3.768,127.0125803,37.56866358
A798,C01,서울,이가철물,서울 은평구 연서로 48-0,Shopping,3.765,126.9159884,37.60339142
A799,C01,서울,동대문신발도매상가길,서울 종로구,Shopping,3.763,126.97899,37.57350424
A800,C01,서울,폭스더그린,서울 용산구 소월로 72-0,Shopping,3.761,126.9784353,37.55405515
A801,C01,서울,하이모강서지점,서울 강서구 공항대로 272-0,Shopping,3.76,126.837758,37.55811177
A802,C01,서울,금영도기상사,서울 중구 수표로 63-1,Shopping,3.758,126.9895048,37.56691712
A803,C01,서울,릴미니멀리움현대디큐브점,서울 구로구 경인로 662-0,Shopping,3.757,126.888213,37.50812307
A804,C01,서울,갈현중앙시장,서울 은평구 갈현로 300-0,Shopping,3.753,126.9174194,37.62360899
A805,C01,서울,은평두레생협녹번역점,서울 은평구 은평로 245-0,Shopping,3.753,126.9351461,37.60110498
A806,C01,서울,진흥기독교백화점,서울 동대문구 천호대로2길 23-3,Shopping,3.753,127.0242475,37.57409206
A807,C01,서울,최공구,서울 강북구 삼양로 278-0,Shopping,3.753,127.0182062,37.62814817
A808,C01,서울,아현카드킹덤,서울 마포구 신촌로 254-0,Shopping,3.749,126.9539721,37.55702594
A809,C01,서울,JAJU이대역점,서울 서대문구 이화여대길 6-0,Shopping,3.747,126.9460139,37.55720736
A810,C01,서울,남산힐레지던스,서울 용산구 이태원로27다길 11-0,Shopping,3.747,126.9945024,37.53608448
A811,C01,서울,가산디지털단지아울렛타운,서울 금천구 디지털로9길 68-0,Shopping,3.744,126.8864183,37.48107584
A812,C01,서울,현악사,서울 강남구 압구정로 224-0,Shopping,3.744,127.0321485,37.52856273
A813,C01,서울,삼보에스비물류,서울 강서구 국회대로 79-0,Shopping,3.742,126.8436727,37.52743822
A814,C01,서울,사조씨푸드구로지점,서울 금천구 두산로7길 13-0,Shopping,3.739,126.8913251,37.47147651
A815,C01,서울,보고시티프라자,서울 강서구 공항대로41길 50-0,Shopping,3.739,126.8460979,37.55988988
A816,C01,서울,다이소롯데몰은평점,서울 은평구 진관2로 지하 15-25,Shopping,3.737,126.9187454,37.63684179
A817,C01,서울,방이백제고분,서울 송파구 오금로 219-0,Shopping,3.735,127.1181642,37.50757491
A818,C01,서울,에프지인터내셔날,서울 용산구 후암로16다길 8-0,Shopping,3.734,126.9793852,37.54816747
A819,C01,서울,대명여울빛거리시장,서울 금천구 금하로 648-0,Shopping,3.732,126.9026239,37.4539598
A820,C01,서울,전라상회,서울 동작구 노들로 674-0,Shopping,3.729,126.937976,37.51482369
A821,C01,서울,삼일제약사옥,서울 서초구 효령로 155-0,Shopping,3.729,127.0012319,37.48234436
A822,C01,서울,원진인테리어,서울 중구 동호로 381-0,Shopping,3.729,127.0018612,37.56847746
A823,C01,서울,두리철강,서울 동대문구 장안벚꽃로 219-0,Shopping,3.729,127.0759253,37.57943583
A824,C01,서울,식스티세컨즈,서울 강남구 삼성로69길 32-0,Shopping,3.725,127.0566983,37.5012339
A825,C01,서울,오케이벽지,서울 중구 을지로 206-0,Shopping,3.723,127.0009905,37.56659205
A826,C01,서울,이마트타운월계점,서울 노원구 마들로3길 15-0,Shopping,3.721,127.0619798,37.62650936
A827,C01,서울,봉천제일시장,서울 관악구 청룡2길 29-0,Shopping,3.721,126.9444156,37.48124954
A828,C01,서울,동인화방,서울 마포구 와우산로 175-0,Shopping,3.718,126.9311662,37.55650533
A829,C01,서울,용문사,서울 성북구 삼양로 82-1,Shopping,3.718,127.0226058,37.61076673
A830,C01,서울,영진디스플레이,서울 종로구 청계천로 253-3,Shopping,3.716,127.005939,37.56990532
A831,C01,서울,제이포엔터테인먼트,서울 서초구 나루터로12길 19-0,Shopping,3.713,127.0177775,37.51456545
A832,C01,서울,바람난풍선,서울 강동구 천호대로 991-0,Shopping,3.713,127.1226666,37.53925919
A833,C01,서울,천호아크릴,서울 강동구 천중로 70-0,Shopping,3.71,127.1296817,37.54475058
A834,C01,서울,대방시장,서울 영등포구 여의대방로39길 2-0,Shopping,3.71,126.9211388,37.50316942
A835,C01,서울,대신소방산업,서울 동대문구 난계로26길 5-14,Shopping,3.708,127.0250322,37.57201691
A836,C01,서울,제로스페이스,서울 마포구 희우정로16길 32-0,Shopping,3.706,126.9037593,37.5545466
A837,C01,서울,리씽크개봉관,서울 구로구 경인로 304-0,Shopping,3.706,126.853918,37.49717717
A838,C01,서울,다이소하월곡점,서울 성북구 월계로 52-0,Shopping,3.703,127.0355659,37.61146982
A839,C01,서울,메르체쇼핑몰,서울 서대문구 이화여대길 59-0,Shopping,3.703,126.945159,37.55898815
A840,C01,서울,창신골목시장,서울 종로구 지봉로 81-0,Shopping,3.7,127.0150497,37.57737574
A841,C01,서울,LG생활건강이마트가든5점,서울 송파구 충민로 10-0,Shopping,3.7,127.1191067,37.47861732
A842,C01,서울,네모네강남역점,서울 강남구 강남대로 420-0,Shopping,3.696,127.0270683,37.50013346
A843,C01,서울,태화장갑,서울 성동구 청계천로10가길 82-0,Shopping,3.696,127.0364698,37.57147261
A844,C01,서울,경동광성상가,서울 동대문구,Shopping,3.693,127.039657,37.57452298
A845,C01,서울,뚝섬쇼핑센터,서울 성동구 성수이로 36-1,Shopping,3.693,127.0548247,37.53821447
A846,C01,서울,엘트레이드,서울 성동구 마장로44길 3-0,Shopping,3.69,127.0454851,37.56732634
A847,C01,서울,청계소방,서울 종로구 청계천로 111-1,Shopping,3.69,126.9900068,37.56844687
A848,C01,서울,영일세라믹,서울 중구 을지로 205-0,Shopping,3.69,127.0009094,37.5669984
A849,C01,서울,덕현빌딩,서울 관악구 시흥대로 534-0,Shopping,3.685,126.9003229,37.48093846
A850,C01,서울,양키캔들석촌점,서울 송파구 송파대로 453-0,Shopping,3.685,127.1053031,37.5067695
A851,C01,서울,협동안전물산,서울 중구 수표로 72-15,Shopping,3.685,126.9905996,37.56771756
A852,C01,서울,신월3동골목시장,서울 양천구 가로공원로60가길 2-0,Shopping,3.68,126.8251452,37.53424263
A853,C01,서울,우신쇼핑,서울 구로구 오리로 1265-0,Shopping,3.68,126.8300624,37.49467146
A854,C01,서울,미래생명자원,서울 송파구 법원로9길 26-0,Shopping,3.68,127.1166255,37.48417172
A855,C01,서울,장미원골목시장,서울 강북구 삼양로123길 9-0,Shopping,3.674,127.0151993,37.64465807
A856,C01,서울,신예상회,서울 영등포구 영신로37길 2-4,Shopping,3.674,126.9009952,37.52125002
A857,C01,서울,다이소흑석점,서울 동작구 서달로 161-1,Shopping,3.674,126.9622592,37.5078135
A858,C01,서울,앗싸다미용기자재,서울 송파구 성내천로12길 13-0,Shopping,3.674,127.1372105,37.50007535
A859,C01,서울,월드24시,서울 은평구 통일로 855-15,Shopping,3.668,126.9197843,37.61924516
A860,C01,서울,한국수공예문화협회,서울 서초구 남부순환로 2640-11,Shopping,3.668,127.0396445,37.48461465
A861,C01,서울,구름쥬스,서울 강남구 테헤란로87길 51-0,Shopping,3.668,127.057389,37.51090432
A862,C01,서울,상도전통시장,서울 동작구 상도로37길 62-0,Shopping,3.665,126.9521015,37.49874471
A863,C01,서울,시원미트,서울 강남구 도산대로46길 21-0,Shopping,3.664,127.0370934,37.52084213
A864,C01,서울,둔촌역재래시장,서울 강동구 풍성로58길 34-0,Shopping,3.662,127.135157,37.52748281
A865,C01,서울,다이소당고개역점,서울 노원구 덕릉로126길 2-0,Shopping,3.66,127.0814938,37.67018924
A866,C01,서울,청계5가지하쇼핑센터,서울 중구 동호로 390-3,Shopping,3.66,127.0023676,37.56924285
A867,C01,서울,은성에이스,서울 동작구 동작대로13길 17-0,Shopping,3.657,126.9799616,37.48157041
A868,C01,서울,샵리퍼브강서점,서울 강서구 양천로73가길 74-0,Shopping,3.656,126.8761782,37.54977723
A869,C01,서울,동진빌딩,서울 동대문구 왕산로 16-0,Shopping,3.654,127.025465,37.57600552
A870,C01,서울,이케아고덕점 건축중(2024년준공예정),서울 강동구,Shopping,3.651,127.1237925,37.53019332
A871,C01,서울,한국아이씨엠,서울 서초구 샘마을길 4-5,Shopping,3.651,127.0717803,37.45798888
A872,C01,서울,충무로애견거리,서울 중구,Shopping,3.651,126.9975552,37.56380777
A873,C01,서울,꽃가마,서울 강남구 삼성로 225-0,Shopping,3.648,127.0614205,37.49718818
A874,C01,서울,굿윌스토어방이점,서울 송파구 마천로 76-0,Shopping,3.648,127.1286769,37.50732606
A875,C01,서울,대림비앤씨,서울 성동구 무학로14길 66-0,Shopping,3.643,127.0369533,37.56923808
A876,C01,서울,다이소하나로마트방화점,서울 강서구 금낭화로 127-0,Shopping,3.643,126.8121967,37.57679087
A877,C01,서울,168cm건대롯데백화점스타시티점,서울 광진구 능동로 90-0,Shopping,3.643,127.0709218,37.53836258
A878,C01,서울,종합기독교백화점,서울 중랑구 망우로 192-0,Shopping,3.643,127.0741449,37.59319251
A879,C01,서울,JAJU이마트에브리데이 구로항동점,서울 구로구 서해안로 2124-0,Shopping,3.638,126.8253944,37.48166952
A880,C01,서울,삼양아케이트,서울 강북구 솔샘로 254-0,Shopping,3.638,127.020744,37.6193297
A881,C01,서울,월터워커일원점,서울 강남구 일원로 115-0,Shopping,3.635,127.0844597,37.4840224
A882,C01,서울,미진사,서울 중구 충무로 26-1,Shopping,3.635,126.9931639,37.56354261
A883,C01,서울,진솔미용컨설팅,서울 광진구 군자로 75-0,Shopping,3.631,127.0706372,37.54991924
A884,C01,서울,다이소세이브존노원점,서울 노원구 공릉로 351-0,Shopping,3.631,127.0680314,37.63815992
A885,C01,서울,디어베이프,서울 성북구 고려대로6길 72-0,Shopping,3.628,127.0217478,37.58258955
A886,C01,서울,다이소하나로마트방이역점,서울 송파구 양재대로72길 5-0,Shopping,3.628,127.1275195,37.5099532
A887,C01,서울,분장몰,서울 강동구 성안로 195-0,Shopping,3.625,127.1364895,37.54042739
A888,C01,서울,남대문수입상가,서울 중구 남대문시장4길 21-0,Shopping,3.622,126.9776537,37.55918636
A889,C01,서울,목동상품권에이스커머스,서울 양천구 오목로 333-0,Shopping,3.622,126.8745543,37.52485801
A890,C01,서울,대성철물건재,서울 서초구 방배로37길 31-0,Shopping,3.622,126.988125,37.49315677
A891,C01,서울,부경에스엠,서울 강남구 도곡로 205-0,Shopping,3.622,127.0413646,37.49291982
A892,C01,서울,썬마트,서울 중구 남대문시장4길 28-8,Shopping,3.617,126.976814,37.55901645
A893,C01,서울,원진특수볼트너트,서울 동대문구 고미술로 57-0,Shopping,3.617,127.0539285,37.56699212
A894,C01,서울,신정1동골목시장,서울 양천구 중앙로34길 28-0,Shopping,3.613,126.8538216,37.52062739
A895,C01,서울,베네치아메가몰B블럭가동,서울 중구 청계천로 370-0,Shopping,3.613,127.0186906,37.57052441
A896,C01,서울,오늘의집,서울 서초구 서초대로74길 4-0,Shopping,3.613,127.0257036,37.49674373
A897,C01,서울,번동시장,서울 성북구 한천로101길 59-0,Shopping,3.61,127.0478839,37.62142778
A898,C01,서울,몽슈슈청담플래그십,서울 강남구 도산대로67길 30-0,Shopping,3.607,127.0445733,37.52596453
A899,C01,서울,강동미싱,서울 강동구 올림픽로 731-0,Shopping,3.607,127.1260252,37.54665015
A900,C01,서울,새로나쇼핑,서울 중구 남대문로 30-0,Shopping,3.607,126.9790477,37.56083481
A901,C01,서울,우이골목시장,서울 강북구 노해로23길 76-0,Shopping,3.604,127.0196336,37.64622531
A902,C01,서울,네일몰강남점,서울 서초구 강남대로65길 10-0,Shopping,3.602,127.024952,37.50049298
A903,C01,서울,남대문수입상가,서울 종로구 종로 196-1,Shopping,3.602,126.9994736,37.57037254
A904,C01,서울,닥터스텍,서울 강동구 상일로6길 55-0,Shopping,3.599,127.1763265,37.55000396
A905,C01,서울,이악크래프트,서울 용산구 한남대로42길 15-0,Shopping,3.596,127.0027999,37.54278667
A906,C01,서울,센트리롯데몰김포공항점,서울 강서구 하늘길 38-0,Shopping,3.596,126.8029604,37.57136985
A907,C01,서울,다이소현대백화점디큐브시티점,서울 구로구 경인로 662-0,Shopping,3.596,126.888213,37.50812307
A908,C01,서울,이브자리홈플러스가양점홈플러스가양점,서울 강서구 양천로 431-0,Shopping,3.592,126.8499602,37.56426405
A909,C01,서울,다이소시흥점,서울 금천구 시흥대로 204-0,Shopping,3.592,126.9018968,37.45222709
A910,C01,서울,BTS POP-UP PERMISSION TO DANCE,서울 성동구 성수이로 88-0,Shopping,3.592,127.0567662,37.54267043
A911,C01,서울,더베이프샵다미홍대점,서울 마포구 와우산로35길 71-4,Shopping,3.587,126.9268555,37.55632182
A912,C01,서울,도시공구,서울 마포구 월드컵로 53-0,Shopping,3.586,126.9115063,37.55400792
A913,C01,서울,올리브영광나루역점,서울 광진구 아차산로 607-0,Shopping,3.583,127.1060474,37.5473786
A914,C01,서울,도향불교전시장,서울 강북구 한천로 1141-0,Shopping,3.583,127.0177118,37.64624985
A915,C01,서울,노다지복권방,서울 성동구 아차산로7길 3-0,Shopping,3.58,127.054064,37.54569149
A916,C01,서울,모던하우스방학점,서울 도봉구 도봉로 684-0,Shopping,3.58,127.0435897,37.66534674
A917,C01,서울,양재종합시장,서울 서초구 남부순환로356길 15-0,Shopping,3.576,127.037966,37.48431085
A918,C01,서울,다이소GS슈퍼명일점,서울 강동구 양재대로 1630-0,Shopping,3.576,127.1447929,37.55106253
A919,C01,서울,디앤디파트먼트,서울 용산구 이태원로 240-0,Shopping,3.573,127.0001638,37.53610921
A920,C01,서울,서울포장비니루본드장갑,서울 동대문구 황물로 145-0,Shopping,3.573,127.054684,37.56693627
A921,C01,서울,에이탑오피스텔,서울 강서구 화곡로 230-0,Shopping,3.57,126.8451067,37.54558534
A922,C01,서울,도깨비시장,서울 용산구 장문로49길 104-0,Shopping,3.568,127.0028774,37.53074705
A923,C01,서울,한림철물장식,서울 강동구 천호대로 1153-0,Shopping,3.568,127.1396481,37.53408327
A924,C01,서울,브이티쥐,서울 종로구 삼청로 131-1,Shopping,3.564,126.981491,37.58724383
A925,C01,서울,삼성산업안전,서울 중구 청계천로 124-0,Shopping,3.564,126.9912204,37.56797791
A926,C01,서울,민테크,서울 동대문구 한천로10길 22-0,Shopping,3.564,127.0623347,37.56587994
A927,C01,서울,경진포장산업,서울 서초구 동산로2길 38-0,Shopping,3.561,127.0427378,37.46830602
A928,C01,서울,미주쇼핑센터,서울 구로구 가마산로27길 52-0,Shopping,3.559,126.8907914,37.49913102
A929,C01,서울,정릉4동시장,서울 성북구 보국문로16길 74-1,Shopping,3.554,127.0104653,37.6132711
A930,C01,서울,파스타바코본점,서울 마포구 연희로 7-0,Shopping,3.554,126.9263326,37.5594348
A931,C01,서울,릴공식서비스센터강남점,서울 강남구 논현로28길 49-0,Shopping,3.554,127.0455849,37.48486984
A932,C01,서울,홈베이스마켓,서울 성북구 성북로 49-0,Shopping,3.554,127.0024098,37.59205529
A933,C01,서울,남대문도깨비시장,서울 중구 남대문시장4길 9-0,Shopping,3.55,126.9776736,37.55966786
A934,C01,서울,고투몰,서울 서초구 신반포로 지하 200-0,Shopping,3.55,127.0050517,37.50622031
A935,C01,서울,알파오메가노원점,서울 노원구 동일로 1356-0,Shopping,3.545,127.0622369,37.64988086
A936,C01,서울,하이리빙드림스퀘어,서울 강남구 테헤란로5길 51-17,Shopping,3.545,127.0282747,37.50137801
A937,C01,서울,덤코리아,서울 중랑구 중랑천로15길 20-0,Shopping,3.545,127.0714229,37.59408761
A938,C01,서울,알란스,서울 강남구 논현로161길 17-0,Shopping,3.54,127.0266542,37.52345821
A939,C01,서울,리더스프라자,서울 송파구 충민로2길 24-0,Shopping,3.54,127.1272833,37.47764381
A940,C01,서울,갤러리준,서울 중구 수표로 13-0,Shopping,3.54,126.9901732,37.56250986
A941,C01,서울,대성재료상사,서울 종로구 돈화문로10가길 7-0,Shopping,3.536,126.9924464,37.5729878
A942,C01,서울,새로핸즈,서울 중구 동호로 379-0,Shopping,3.536,127.0018263,37.5683242
A943,C01,서울,비즈제이,서울 중랑구 신내역로3길 40-36,Shopping,3.532,127.1040125,37.61760048
A944,C01,서울,킹콩전자담배멀티샵강남점,서울 강남구 학동로2길 6-0,Shopping,3.532,127.0222206,37.51093374
A945,C01,서울,남양철물건재,서울 강남구 강남대로152길 29-0,Shopping,3.532,127.0216979,37.5179477
A946,C01,서울,번동북부골목시장,서울 강북구 덕릉로41길 15-0,Shopping,3.526,127.0309272,37.63565957
A947,C01,서울,신노량진시장,서울 동작구 장승배기로 123-6,Shopping,3.526,126.9393564,37.50854576
A948,C01,서울,하카전자담배목동직영점,서울 양천구 오목로 233-0,Shopping,3.526,126.863281,37.52615834
A949,C01,서울,더킹전자담배,서울 강남구 언주로 409-0,Shopping,3.526,127.0438236,37.49959224
A950,C01,서울,프라임골프동대문점,서울 동대문구 망우로 21-0,Shopping,3.526,127.0557435,37.58829538
A951,C01,서울,한남철물전기,서울 노원구 상계로1길 14-17,Shopping,3.519,127.0618757,37.6573065
A952,C01,서울,숲센터,서울 마포구 성미산로11길 5-0,Shopping,3.519,126.9164582,37.56084423
A953,C01,서울,유성종합청소용품,서울 영등포구 도림로 273-1,Shopping,3.519,126.9040169,37.50230431
A954,C01,서울,두껍상회서울강남점,서울 강남구 강남대로 420-0,Shopping,3.519,127.0270683,37.50013346
A955,C01,서울,영등포역지하쇼핑센터,서울 영등포구,Shopping,3.515,126.8962739,37.52636357
A956,C01,서울,양키캔들위례점,서울 송파구 위례광장로 136-0,Shopping,3.515,127.1423748,37.47719582
A957,C01,서울,서광금속,서울 금천구 시흥대로 97-0,Shopping,3.511,126.9010724,37.44468212
A958,C01,서울,골드플레이트,서울 서초구 논현로17길 19-0,Shopping,3.511,127.0448271,37.47584959
A959,C01,서울,하카전자담배강남선릉직영점,서울 강남구 테헤란로52길 16-0,Shopping,3.509,127.0463814,37.50249755
A960,C01,서울,원더베이프 전자담배강남점,서울 강남구 테헤란로4길 46-0,Shopping,3.505,127.0300647,37.49554814
A961,C01,서울,승현인테리어가구,서울 중구 퇴계로83길 42-0,Shopping,3.505,127.0184093,37.56762397
A962,C01,서울,lil공식서비스센터북부점,서울 강북구 덕릉로 186-0,Shopping,3.505,127.0346737,37.63545634
A963,C01,서울,아현웨딩타운,서울 서대문구,Shopping,3.505,126.9368157,37.57916186
A964,C01,서울,원더플레이스홍대FSS점,서울 마포구 양화로 164-0,Shopping,3.499,126.924056,37.55653801
A965,C01,서울,스피드상품권,서울 강남구 압구정로 151-0,Shopping,3.499,127.024455,37.52678582
A966,C01,서울,다이소현대시티몰가든파이브점,서울 송파구 충민로 66-0,Shopping,3.499,127.1249618,37.47761484
A967,C01,서울,풍성상사,서울 성동구 둘레7길 4-0,Shopping,3.499,127.0486306,37.53695001
A968,C01,서울,화양골목시장,서울 광진구 아차산로29길 59-0,Shopping,3.494,127.0692921,37.54349132
A969,C01,서울,교립노원프라자,서울 노원구 한글비석로 440-13,Shopping,3.494,127.0688456,37.66384133
A970,C01,서울,벨벳,서울 서초구 샘마을길 3-4,Shopping,3.494,127.0708633,37.45770985
A971,C01,서울,서울전재상사,서울 중구 을지로17길 10-0,Shopping,3.491,126.9946614,37.56698612
A972,C01,서울,박승철위그스투디오강북노원점,서울 노원구 동일로 1402-0,Shopping,3.487,127.0611278,37.65374936
A973,C01,서울,무인양품메세나폴리스몰점,서울 마포구 양화로 45-0,Shopping,3.487,126.9139502,37.5515008
A974,C01,서울,해피필즈,서울 마포구 어울마당로 75-0,Shopping,3.487,126.9213099,37.55186372
A975,C01,서울,제이원팜,서울 동대문구 천호대로83길 71-2,Shopping,3.487,127.0661042,37.56532297
A976,C01,서울,자유케이블판매,서울 중구 창경궁로5가길 35-0,Shopping,3.479,126.9966915,37.56816893
A977,C01,서울,앵글코리아,서울 동대문구 한천로 411-1,Shopping,3.479,127.067612,37.59735504
A978,C01,서울,진로할인마트중계점,서울 노원구 중계로 160-0,Shopping,3.479,127.0813659,37.64940693
A979,C01,서울,힐링쉴드연신내점,서울 은평구 통일로 856-0,Shopping,3.479,126.9215229,37.61962267
A980,C01,서울,모던하우스마리오아울렛점,서울 금천구 벚꽃로 266-0,Shopping,3.479,126.8850808,37.47844577
A981,C01,서울,하카전자담배강남구청점,서울 강남구 학동로 342-0,Shopping,3.479,127.0408413,37.51675601
A982,C01,서울,피에스미트,서울 성동구 마장로33길 73-0,Shopping,3.473,127.0397136,37.57123451
A983,C01,서울,삼화페인트,서울 동대문구 안암로16길 25-1,Shopping,3.473,127.0294345,37.58104043
A984,C01,서울,한국철물상사,서울 노원구 동일로231길 60-0,Shopping,3.471,127.052271,37.67209219
A985,C01,서울,브라운앤컴퍼니,서울 강서구 마곡중앙6로 21-0,Shopping,3.467,126.8296185,37.56083564
A986,C01,서울,모웰서울점,서울 동작구 매봉로 182-0,Shopping,3.467,126.9523986,37.51239821
A987,C01,서울,자주신논현점,서울 강남구 강남대로 498-0,Shopping,3.467,127.0238669,37.50669563
A988,C01,서울,Holibanum,서울 강동구 아리수로72길 46-10,Shopping,3.467,127.1619621,37.56196085
A989,C01,서울,청정수산,서울 강서구 발산로 24-0,Shopping,3.463,126.8187468,37.55279851
A990,C01,서울,5와인주류하우스,서울 종로구 새문안로3길 23-0,Shopping,3.463,126.9724408,37.57263082
A991,C01,서울,캠크린산업,서울 동대문구 답십리로40길 58-0,Shopping,3.459,127.0492845,37.57165374
A992,C01,서울,에이필드,서울 마포구 성미산로 179-0,Shopping,3.459,126.9255488,37.56384496
A993,C01,서울,경마금속쓰리알,서울 성동구 성수일로 18-0,Shopping,3.457,127.0489349,37.54207874
A994,C01,서울,은하유통,서울 송파구 양재대로 932-0,Shopping,3.454,127.1087136,37.49453769
A995,C01,서울,한국혈행단,서울 마포구 월드컵북로 46-0,Shopping,3.454,126.9181946,37.5586299
A996,C01,서울,대양종합주방,서울 중구 마장로5길 35-0,Shopping,3.454,127.0193555,37.56958502
A997,C01,서울,자하브,서울 서대문구 연세로2마길 19-0,Shopping,3.45,126.942023,37.55804475
A998,C01,서울,삼화페인트,서울 마포구 월드컵북로 41-0,Shopping,3.45,126.9181133,37.55793797
A999,C01,서울,엘에이스텔라,서울 금천구 서부샛길 648-0,Shopping,3.45,126.8761807,37.48120449
A1000,C01,서울,금강불교사,서울 동작구 상도로 308-0,Shopping,3.446,126.9496624,37.50035866
A1001,C01,서울,키친에이드,서울 용산구 서빙고로 4-10,Shopping,3.446,126.9652207,37.52577834
A1002,C01,서울,연신내어시장,서울 은평구 통일로 883-0,Shopping,3.441,126.9195483,37.62179767
A1003,C01,서울,금호노블셔터,서울 중구 다산로24길 18-0,Shopping,3.441,127.0134926,37.55768799
A1004,C01,서울,무지개빌,서울 광진구 자양번영로8길 14-0,Shopping,3.441,127.0768683,37.53419128
A1005,C01,서울,다이소롯데마트송파점,서울 송파구 중대로 80-0,Shopping,3.441,127.1178428,37.49176204
A1006,C01,서울,다이소봉천현대시장점,서울 관악구 양녕로 49-0,Shopping,3.437,126.946515,37.48643059
A1007,C01,서울,대진월드,서울 중구 삼일대로4길 18-0,Shopping,3.437,126.990151,37.5619453
A1008,C01,서울,자유상가,서울 중구 남대문로 36-0,Shopping,3.428,126.9797671,37.56095855
A1009,C01,서울,신월시장,서울 양천구 남부순환로42길 27-0,Shopping,3.428,126.8273997,37.53367769
A1010,C01,서울,신한벽지,서울 마포구 토정로32길 3-0,Shopping,3.428,126.9416766,37.54078965
A1011,C01,서울,다이소봉천1호점,서울 관악구 관악로 218-0,Shopping,3.428,126.9552464,37.48409232
A1012,C01,서울,삼일도자기,서울 서초구 헌인릉1길 66-0,Shopping,3.428,127.0870018,37.46487626
A1013,C01,서울,서울사,서울 중구 동호로 378-2,Shopping,3.428,127.0024362,37.5681412
A1014,C01,서울,모모천연가죽시트,서울 동대문구 답십리로 221-0,Shopping,3.428,127.0649038,37.57297993
A1015,C01,서울,미아베이퍼스미아점,서울 강북구 도봉로8길 32-0,Shopping,3.428,127.0318092,37.6121533
A1016,C01,서울,우장쇼핑센터,서울 강서구 우장산로 114-0,Shopping,3.419,126.848514,37.553032
A1017,C01,서울,신정프라자,서울 양천구 신정이펜2로 22-0,Shopping,3.419,126.8325647,37.51289569
A1018,C01,서울,힐링쉴드상봉점,서울 중랑구 망우로 353-0,Shopping,3.419,127.0916241,37.59833282
A1019,C01,서울,한강사업본부양화안내센터,서울 영등포구 노들로 221-0,Shopping,3.414,126.9024044,37.5382275
A1020,C01,서울,온누리안전용품,서울 광진구 동일로 426-0,Shopping,3.414,127.0789777,37.56819473
A1021,C01,서울,니아벡,서울 광진구 자양로53길 15-0,Shopping,3.414,127.0930989,37.55417628
A1022,C01,서울,평창양계,서울 송파구 동남로20길 51-0,Shopping,3.411,127.1368931,37.49390013
A1023,C01,서울,가양장갑,서울 강서구 방화대로 239-0,Shopping,3.411,126.8161606,37.56203945
A1024,C01,서울,묵1동도깨비시장,서울 중랑구,Shopping,3.407,127.0928203,37.60654324
A1025,C01,서울,다이소롯데슈퍼범서점,서울 은평구 통일로 842-0,Shopping,3.407,126.9220638,37.61869023
A1026,C01,서울,오렌지당구재료,서울 영등포구 대림로 109-0,Shopping,3.404,126.9024537,37.49126931
A1027,C01,서울,오리온도봉D.C장,서울 도봉구 마들로 564-0,Shopping,3.404,127.04848,37.66125348
A1028,C01,서울,알파오메가상계역점,서울 노원구 한글비석로 377-0,Shopping,3.401,127.0733657,37.65892546
A1029,C01,서울,옥천빌딩,서울 강서구 양천로 354-0,Shopping,3.401,126.8417326,37.56789522
A1030,C01,서울,벨플러스,서울 강서구 공항대로 186-0,Shopping,3.396,126.8279957,37.55909968
A1031,C01,서울,지덕빌딩,서울 강서구 등촌로 75-0,Shopping,3.396,126.863203,37.53671393
A1032,C01,서울,에스에스지닷컴본사,서울 종로구 우정국로 26-0,Shopping,3.396,126.983659,37.57149666
A1033,C01,서울,파스타바코동대문총판,서울 동대문구 한천로 152-0,Shopping,3.396,127.0673324,37.57447395
A1034,C01,서울,비엔베이프,서울 노원구 동일로 1363-0,Shopping,3.389,127.0612805,37.65044033
A1035,C01,서울,삼광씨앤비,서울 중구 창경궁로5가길 22-0,Shopping,3.389,126.997418,37.56812381
A1036,C01,서울,하카전자담배약수역점,서울 중구 다산로 146-0,Shopping,3.389,127.011913,37.55658778
A1037,C01,서울,용산구재활용선별장,서울 용산구 원효로 100-38,Shopping,3.389,126.9522796,37.53091872
A1038,C01,서울,안심푸드에프엠비,서울 성동구 고산자로14길 40-0,Shopping,3.383,127.0374334,37.56494252
A1039,C01,서울,피카프로젝트,서울 강남구 도산대로101길 22-0,Shopping,3.383,127.052977,37.52628389
A1040,C01,서울,두성아크릴,서울 중구 을지로 118-1,Shopping,3.383,126.9910657,37.56608734
A1041,C01,서울,우이할인마트,서울 강북구 노해로23길 68-0,Shopping,3.383,127.020016,37.64603739
A1042,C01,서울,신풍고주파,서울 중구 을지로33길 27-0,Shopping,3.377,126.999031,37.56720247
A1043,C01,서울,유한엠케이,서울 강북구 삼양로118길 31-0,Shopping,3.377,127.0178429,37.64423424
A1044,C01,서울,향남고물상,서울 강서구 화곡로61길 22-0,Shopping,3.377,126.851172,37.55730052
A1045,C01,서울,신바드,서울 서초구 남부순환로333길 56-0,Shopping,3.377,127.0218586,37.48463172
A1046,C01,서울,축산물유통센타,서울 성동구 마장로33길 73-0,Shopping,3.371,127.0397136,37.57123451
A1047,C01,서울,오성인테리어,서울 노원구 덕릉로 625-0,Shopping,3.371,127.073729,37.65368972
A1048,C01,서울,모아하우스,서울 강서구 화곡로26길 54-0,Shopping,3.371,126.8412865,37.53933337
A1049,C01,서울,아이코스스토어일렉트로마트왕십리점,서울 성동구 왕십리광장로 17-0,Shopping,3.371,127.0383942,37.56144175
A1050,C01,서울,올포랩,서울 금천구 가산디지털2로 123-0,Shopping,3.364,126.8787102,37.47872673
A1051,C01,서울,벡톤디킨슨코리아,서울 강남구 테헤란로 142-0,Shopping,3.364,127.0349548,37.49974405
A1052,C01,서울,젠힐링샵,서울 강남구 봉은사로82길 5-0,Shopping,3.364,127.0548513,37.51289756
A1053,C01,서울,필동작업실,서울 중구 필동로8길 16-0,Shopping,3.364,126.9952574,37.55515155
A1054,C01,서울,폭스임팩트,서울 광진구 광나루로35길 37-0,Shopping,3.364,127.0876792,37.54651348
A1055,C01,서울,사일로상점,서울 마포구 희우정로10길 32-0,Shopping,3.357,126.9058362,37.55324759
A1056,C01,서울,하카전자담배영등포점,서울 영등포구 경인로 875-1,Shopping,3.357,126.9098659,37.5177825
A1057,C01,서울,화랑사,서울 송파구 마천로 353-0,Shopping,3.357,127.1534436,37.49260054
A1058,C01,서울,남산케이블카,서울 중구 남산공원길 125-72,Shopping,3.357,126.9872895,37.55239941
A1059,C01,서울,평화자개옻칠취급점,서울 성동구 무학로2길 30-1,Shopping,3.352,127.0331215,37.56332247
A1060,C01,서울,성도액자,서울 동대문구 한천로 157-0,Shopping,3.352,127.0670641,37.57494947
A1061,C01,서울,동성철물공구,서울 노원구 상계로 141-1,Shopping,3.345,127.0702904,37.65861713
A1062,C01,서울,워드로브목동직영점,서울 양천구 목동로25길 28-0,Shopping,3.345,126.861078,37.5283462
A1063,C01,서울,낫띵메터스,서울 강서구 마곡서로 175-0,Shopping,3.345,126.8242325,37.56890813
A1064,C01,서울,다이소신분당선양재역점,서울 서초구 남부순환로 지하 2585-0,Shopping,3.345,127.0345442,37.48393473
A1065,C01,서울,다이소천호2호점,서울 강동구 올림픽로 630-0,Shopping,3.345,127.1234446,37.53775164
A1066,C01,서울,대원지업,서울 중구 을지로13길 5-0,Shopping,3.345,126.9918239,37.56667115
A1067,C01,서울,삼신안전,서울 광진구 동일로62길 14-0,Shopping,3.345,127.0749096,37.5596963
A1068,C01,서울,삼정물산,서울 성북구 한천로101길 59-0,Shopping,3.345,127.0478839,37.62142778
A1069,C01,서울,한살림동서울지부,서울 강동구 양재대로 1404-0,Shopping,3.336,127.1379838,37.53127465
A1070,C01,서울,한일철물,서울 종로구,Shopping,3.336,126.97899,37.57350424
A1071,C01,서울,퍼퓸그라피,서울 종로구 대학로10길 15-15,Shopping,3.336,127.0028263,37.58247998
A1072,C01,서울,대진철물공구전기,서울 노원구 상계로 87-0,Shopping,3.328,127.0647048,37.65678566
A1073,C01,서울,버나드전자담배,서울 마포구 마포대로 68-0,Shopping,3.328,126.9488974,37.54134215
A1074,C01,서울,경기산업빌딩,서울 강서구 화곡로 416-0,Shopping,3.328,126.8554197,37.56002401
A1075,C01,서울,허그어웨일,서울 강서구 화곡로55길 23-0,Shopping,3.328,126.8485026,37.55265735
A1076,C01,서울,베이프존등촌점,서울 강서구 공항대로 557-0,Shopping,3.328,126.8678677,37.54975147
A1077,C01,서울,키보스,서울 서초구 바우뫼로 184-0,Shopping,3.328,127.0403313,37.47861244
A1078,C01,서울,광동수산본점,서울 영등포구 도신로 246-0,Shopping,3.328,126.9180863,37.51291441
A1079,C01,서울,농협중앙회가락공판장,서울 송파구 양재대로 932-0,Shopping,3.328,127.1087136,37.49453769
A1080,C01,서울,수일시장,서울 은평구 수색로16길 5-1,Shopping,3.319,126.8952179,37.58294825
A1081,C01,서울,필립수산,서울 송파구 양재대로 932-0,Shopping,3.319,127.1087136,37.49453769
A1082,C01,서울,가로골목,서울 강남구 가로수길 36-0,Shopping,3.319,127.0232466,37.5203448
A1083,C01,서울,웰릭스렌탈,서울 구로구 디지털로31길 12-0,Shopping,3.319,126.8953634,37.48510657
A1084,C01,서울,아이코스서비스센터오렌지마트점,서울 마포구 월드컵북로 402-0,Shopping,3.313,126.8889823,37.58010775
A1085,C01,서울,제니로켓,서울 마포구 와우산로29나길 11-0,Shopping,3.313,126.9283243,37.55468354
A1086,C01,서울,한미하우스,서울 용산구 회나무로42길 22-0,Shopping,3.313,126.9950515,37.54039426
A1087,C01,서울,중계종합철물,서울 노원구 중계로14길 23-0,Shopping,3.313,127.0817667,37.64965622
A1088,C01,서울,원동방좋은집,서울 동작구 대방동23가길 8-0,Shopping,3.307,126.9238474,37.50440981
A1089,C01,서울,원더베이프서초점,서울 서초구 서초대로46길 3-0,Shopping,3.307,127.009996,37.49226918
A1090,C01,서울,사숙재회관,서울 동대문구 왕산로 53-0,Shopping,3.307,127.0292008,37.57768032
A1091,C01,서울,동남상가,서울 영등포구 영등포로37길 4-0,Shopping,3.3,126.9056598,37.52059746
A1092,C01,서울,펭귄시장,서울 관악구 남부순환로143나길 7-0,Shopping,3.3,126.9110222,37.4828621
A1093,C01,서울,일무갤러리,서울 강남구 논현로157길 20-0,Shopping,3.3,127.0263895,37.52250465
A1094,C01,서울,디일오,서울 강동구 성내로8길 9-0,Shopping,3.3,127.1235747,37.52886088
A1095,C01,서울,금호타워빌,서울 성동구 금호로 166-0,Shopping,3.3,127.0202285,37.55564717
A1096,C01,서울,성창부품,서울 동대문구 전농로4길 48-0,Shopping,3.3,127.059167,37.56663075
A1097,C01,서울,77철물까페,서울 중구 을지로11길 28-0,Shopping,3.293,126.9909552,37.56767038
A1098,C01,서울,재활용쎈타제2관,서울 노원구 덕릉로 639-0,Shopping,3.293,127.0739453,37.65473265
A1099,C01,서울,할머니영양탕흑염소탕,서울 강동구 양재대로 1496-0,Shopping,3.293,127.1408669,37.53913905
A1100,C01,서울,경동시장광성상회,서울 동대문구 고산자로36길 30-0,Shopping,3.281,127.0401151,37.57912276
A1101,C01,서울,넝쿨상회,서울 마포구 서강로1길 12-4,Shopping,3.281,126.9311668,37.54881856
A1102,C01,서울,은평두레생협진관점,서울 은평구 진관3로 67-0,Shopping,3.281,126.9209327,37.64276446
A1103,C01,서울,한신&타일,서울 서초구 서초대로27길 8-0,Shopping,3.281,126.9949501,37.48851968
A1104,C01,서울,GRANHAND,서울 종로구 북촌로11길 19-0,Shopping,3.281,126.9839367,37.58179282
A1105,C01,서울,도성상사,서울 중구 퇴계로52길 15-0,Shopping,3.281,127.0040053,37.56263472
A1106,C01,서울,영은아크릴,서울 중구 을지로28길 11-0,Shopping,3.281,126.9991722,37.5660765
A1107,C01,서울,신승빌딩,서울 중구 마른내로 116-0,Shopping,3.281,127.0007908,37.56430478
A1108,C01,서울,장수환경,서울 광진구 자양로9길 45-1,Shopping,3.281,127.0822802,37.53287389
A1109,C01,서울,밀란상봉지점,서울 중랑구 동일로 709-0,Shopping,3.281,127.0798396,37.59368668
A1110,C01,서울,비즈모아코리아,서울 중랑구 망우로 514-0,Shopping,3.281,127.109131,37.60010396
A1111,C01,서울,푸드스타,서울 강서구 방화대로5가길 8-0,Shopping,3.27,126.815875,37.55466336
A1112,C01,서울,경동나비엔동작중앙대리점,서울 동작구 남부순환로 2029-0,Shopping,3.27,126.9741568,37.47649021
A1113,C01,서울,쿠나장롱,서울 성동구 연무장7가길 7-0,Shopping,3.27,127.055254,37.5431076
A1114,C01,서울,안성철물건재,서울 성동구 독서당로51길 25-1,Shopping,3.27,127.0262864,37.55032298
A1115,C01,서울,신월중앙시장,서울 강서구 강서로5나길 109-0,Shopping,3.263,126.8419059,37.52796881
A1116,C01,서울,롯데홈쇼핑,서울 양천구 목동동로 233-3,Shopping,3.263,126.8716543,37.52784649
A1117,C01,서울,루루상품권,서울 금천구 벚꽃로 40-0,Shopping,3.263,126.8930206,37.46005964
A1118,C01,서울,프로젝트렌트1호점,서울 성동구 서울숲길 43-0,Shopping,3.263,127.0424537,37.54811893
A1119,C01,서울,다이소보문점,서울 성북구 보문로 99-0,Shopping,3.263,127.019824,37.58399292
A1120,C01,서울,골든프라자,서울 구로구 부일로15길 20-0,Shopping,3.257,126.8338087,37.4941743
A1121,C01,서울,김포장갑,서울 영등포구 양산로 208-0,Shopping,3.257,126.9061128,37.52243388
A1122,C01,서울,다이소하이웨이마트구의점,서울 광진구 광나루로 516-0,Shopping,3.257,127.086624,37.54461333
A1123,C01,서울,주신꽃화원,서울 강서구 양천로 78-0,Shopping,3.25,126.8121461,37.57329556
A1124,C01,서울,계량계측조합회관,서울 강서구 방화대로 409-0,Shopping,3.25,126.8164745,37.57732504
A1125,C01,서울,백토리,서울 금천구 시흥대로 155-0,Shopping,3.25,126.9025526,37.44802647
A1126,C01,서울,승아사택,서울 금천구 독산로 193-0,Shopping,3.25,126.9028019,37.46424887
A1127,C01,서울,호남프라스틱,서울 중구 난계로17길 40-9,Shopping,3.25,127.0208496,37.56999769
A1128,C01,서울,하카전자담배동대문답십리점,서울 동대문구 답십리로 173-0,Shopping,3.25,127.0594159,37.57302048
A1129,C01,서울,덕성빌딩,서울 종로구 종로40길 4-0,Shopping,3.244,127.0065579,37.57076033
A1130,C01,서울,드파운드한남쇼룸,서울 용산구 대사관로5길 14-0,Shopping,3.244,127.0008616,37.53494439
A1131,C01,서울,과일은김수환본점,서울 서대문구 가재울로 8-0,Shopping,3.238,126.9226819,37.5737365
A1132,C01,서울,그린샤시공사,서울 양천구 등촌로 184-0,Shopping,3.238,126.8628749,37.54610097
A1133,C01,서울,임마누엘기독교백화점,서울 구로구 시흥대로 557-0,Shopping,3.238,126.9010446,37.48298724
A1134,C01,서울,데이코하우스,서울 강남구 영동대로 237-0,Shopping,3.238,127.0670641,37.50046513
A1135,C01,서울,삼성역전자담배,서울 강남구 영동대로85길 20-0,Shopping,3.238,127.0616837,37.50702838
A1136,C01,서울,다이소엔터식스천호점,서울 강동구 천호대로 997-0,Shopping,3.238,127.1233017,37.53933917
A1137,C01,서울,합정시장,서울 마포구 양화진길 5-0,Shopping,3.231,126.9131863,37.54821115
A1138,C01,서울,에르메스에비뉴엘월드타워점,서울 송파구 올림픽로 300-0,Shopping,3.231,127.1044469,37.51375196
A1139,C01,서울,사당동가구거리,서울 동작구,Shopping,3.231,126.9393151,37.51248204
A1140,C01,서울,새봄미트,서울 성동구 청계천로10나길 62-6,Shopping,3.225,127.036176,37.57020347
A1141,C01,서울,중랑교종합시장,서울 중랑구 망우로32길 23-0,Shopping,3.225,127.0771147,37.59294806
A1142,C01,서울,모닝캐슬,서울 동작구 대방동15길 20-0,Shopping,3.225,126.9233322,37.50295787
A1143,C01,서울,피렌체레더,서울 종로구 난계로25길 32-0,Shopping,3.225,127.0212569,37.57256284
A1144,C01,서울,대진도기한국도자기동부센타,서울 광진구 자양로45길 58-0,Shopping,3.225,127.0906008,37.55372755
A1145,C01,서울,솔베이스페셜티폴리머스코리아,서울 서대문구 북아현로 150-0,Shopping,3.217,126.9506564,37.56848194
A1146,C01,서울,성보하이드로빌딩,서울 양천구 남부순환로 435-0,Shopping,3.217,126.8332697,37.5290029
A1147,C01,서울,보물마트,서울 금천구 금하로 724-0,Shopping,3.217,126.9100455,37.45044722
A1148,C01,서울,조이오디오,서울 서초구 서초중앙로20길 24-0,Shopping,3.217,127.0154146,37.49224021
A1149,C01,서울,홍제시장,서울 서대문구,Shopping,3.217,126.9368157,37.57916186
A1150,C01,서울,우성미트인터내셔널,서울 성동구 무학로14길 23-0,Shopping,3.207,127.032731,37.5681411
A1151,C01,서울,남성역골목시장,서울 동작구 사당로16가길 19-0,Shopping,3.207,126.9723103,37.48297832
A1152,C01,서울,다이소굿모닝마트유진점,서울 서대문구 통일로 484-0,Shopping,3.207,126.9430423,37.59163153
A1153,C01,서울,드림박스,서울 강서구 국회대로 143-3,Shopping,3.207,126.85067,37.52859217
A1154,C01,서울,한솔크린,서울 강남구 개포로24길 21-0,Shopping,3.207,127.0491287,37.47777757
A1155,C01,서울,자주길동역점,서울 강동구 양재대로 1484-0,Shopping,3.207,127.1403843,37.53810546
A1156,C01,서울,연희볼트,서울 강동구 풍성로 175-0,Shopping,3.207,127.1313946,37.53041423
A1157,C01,서울,더베이프샵다미,서울 성북구 동소문로 107-0,Shopping,3.207,127.0170467,37.59318312
A1158,C01,서울,청량리전통시장,서울 동대문구 홍릉로1길 26-0,Shopping,3.196,127.0433761,37.58081368
A1159,C01,서울,대성소방,서울 종로구 청계천로 111-0,Shopping,3.196,126.9898824,37.5684338
A1160,C01,서울,방산장미벽지,서울 중구 을지로 199-0,Shopping,3.196,127.0000902,37.56694173
A1161,C01,서울,신성측기,서울 용산구 한강대로7길 10-11,Shopping,3.196,126.9625692,37.52477481
A1162,C01,서울,삼성유압,서울 영등포구 영등포로51길 15-0,Shopping,3.196,126.909945,37.51988937
A1163,C01,서울,액티브라이프,서울 송파구 중대로 284-0,Shopping,3.196,127.1322373,37.50591106
A1164,C01,서울,농수산물공판장,서울 송파구 양재대로 932-0,Shopping,3.188,127.1087136,37.49453769
A1165,C01,서울,크렘므오브제,서울 서대문구 연희로11라길 34-0,Shopping,3.188,126.9294444,37.5693382
A1166,C01,서울,선린안전,서울 구로구 경인로66길 13-0,Shopping,3.188,126.8871074,37.50734328
A1167,C01,서울,대승윤활유,서울 영등포구 버드나루로 51-0,Shopping,3.188,126.9105989,37.52307401
A1168,C01,서울,대림판매,서울 중구 동호로34길 29-0,Shopping,3.188,127.0042441,37.56512957
A1169,C01,서울,유일육가공,서울 성동구 마장로33길 67-0,Shopping,3.181,127.0404551,37.57117642
A1170,C01,서울,알맹상점,서울 마포구 월드컵로25길 47-0,Shopping,3.181,126.9051353,37.55783058
A1171,C01,서울,지오또수입가구GIOTTO,서울 강남구 학동로 159-0,Shopping,3.181,127.0281612,37.51341465
A1172,C01,서울,다이소롯데마트행당역점,서울 성동구 행당로 82-0,Shopping,3.181,127.0273997,37.55480888
A1173,C01,서울,신라쇼핑센터,서울 강서구 등촌로5길 80-0,Shopping,3.174,126.8589518,37.53307069
A1174,C01,서울,다이소독산남문시장점,서울 금천구 독산로85길 22-0,Shopping,3.174,126.9018192,37.47259943
A1175,C01,서울,번개장터,서울 서초구 서초대로38길 12-0,Shopping,3.174,127.0053816,37.49049503
A1176,C01,서울,금성농원,서울 서초구 염곡말길 1-0,Shopping,3.174,127.050213,37.46171128
A1177,C01,서울,박승철위그스투디오강동천호점,서울 강동구 올림픽로 572-0,Shopping,3.174,127.1218186,37.53255275
A1178,C01,서울,동문상사,서울 성동구 연무장길 57-0,Shopping,3.174,127.0558038,37.54237636
A1179,C01,서울,양키캔들상암DMC점,서울 마포구 월드컵북로54길 25-0,Shopping,3.161,126.8889847,37.58209264
A1180,C01,서울,샤파밍기샵,서울 구로구 도림천로 446-0,Shopping,3.161,126.8984243,37.48598303
A1181,C01,서울,한국필립모리스,서울 영등포구 국제금융로 10-0,Shopping,3.161,126.9248767,37.52517752
A1182,C01,서울,재활용선별흑석사업장,서울 동작구 현충로 85-5,Shopping,3.161,126.964207,37.50935969
A1183,C01,서울,자주서울대입구역점,서울 관악구 관악로 156-0,Shopping,3.161,126.9526923,37.47912289
A1184,C01,서울,다이소안국역2호점,서울 종로구 율곡로 45-0,Shopping,3.161,126.9843663,37.57631582
A1185,C01,서울,정신자석,서울 중구 을지로 120-1,Shopping,3.161,126.9913087,37.56613421
A1186,C01,서울,군인공제회복지몰,서울 용산구 한강대로62다길 42-0,Shopping,3.161,126.9752414,37.53254991
A1187,C01,서울,다이소노브랜드장안점,서울 동대문구 한천로 42-0,Shopping,3.161,127.0617272,37.565949
A1188,C01,서울,삼화페인트,서울 은평구 응암로 155-0,Shopping,3.151,126.9155669,37.58612866
A1189,C01,서울,한일자동펌프서비스센터강동점,서울 강동구 명일로 163-1,Shopping,3.151,127.1444314,37.53361756
A1190,C01,서울,자주아차산역점,서울 광진구 천호대로 667-0,Shopping,3.151,127.0902389,37.55153957
A1191,C01,서울,회기시장,서울 동대문구,Shopping,3.143,127.039657,37.57452298
A1192,C01,서울,동부마트,서울 중랑구 겸재로40길 15-0,Shopping,3.143,127.0873292,37.58750318
A1193,C01,서울,고려조립식판넬총판,서울 성북구 화랑로 232-0,Shopping,3.143,127.0555242,37.60982376
A1194,C01,서울,다이소롯데마트삼양점,서울 강북구 삼양로 247-0,Shopping,3.143,127.017747,37.62551826
A1195,C01,서울,형제대장간,서울 은평구 수색로 249-0,Shopping,3.143,126.8959897,37.58139354
A1196,C01,서울,천수옥사우나,서울 강서구 양천로24가길 30-0,Shopping,3.143,126.813996,37.5725358
A1197,C01,서울,동남PVC,서울 영등포구 가마산로49길 6-0,Shopping,3.143,126.9002614,37.50366559
A1198,C01,서울,어쩌다가게,서울 마포구 월드컵로19길 74-0,Shopping,3.143,126.9069541,37.5543449
A1199,C01,서울,한양시장,서울 성동구 마조로 17-0,Shopping,3.131,127.0404698,37.55955572
A1200,C01,서울,경기상회,서울 마포구 연남로 72-0,Shopping,3.131,126.9195678,37.56540093
A1201,C01,서울,다이소관악농산물백화점,서울 관악구 남부순환로 1369-0,Shopping,3.131,126.9028969,37.48012907
A1202,C01,서울,파티앤데코본점,서울 서초구 방배로13길 56-0,Shopping,3.131,126.9935258,37.4822176
A1203,C01,서울,EPSON,서울 서초구 사임당로19길 72-18,Shopping,3.131,127.0193553,37.49175138
A1204,C01,서울,아이다전자담배송파잠실점,서울 송파구 송파대로 404-0,Shopping,3.131,127.1093166,37.50336753
A1205,C01,서울,박승철위그스투디오서울아산병원점,서울 송파구 올림픽로37길 130-0,Shopping,3.131,127.1044214,37.52088198
A1206,C01,서울,힐링쉴드문정점,서울 송파구 법원로4길 5-0,Shopping,3.131,127.1218733,37.48291393
A1207,C01,서울,신세계팩토리스토어강남점,서울 서초구 신반포로 194-0,Shopping,3.12,127.0068344,37.50643574
A1208,C01,서울,커스텀아이디강남본점,서울 강남구 테헤란로25길 40-0,Shopping,3.12,127.0350254,37.50312739
A1209,C01,서울,파란마을,서울 강동구 고덕로 92-0,Shopping,3.12,127.1354772,37.55457369
A1210,C01,서울,디바이디,서울 종로구 청계천로 193-0,Shopping,3.12,126.9990132,37.56951686
A1211,C01,서울,송월타올제일상사,서울 용산구 한강대로21길 17-16,Shopping,3.12,126.9633806,37.5264566
A1212,C01,서울,양천구목2동시장,서울 양천구 목동중앙북로16길 3-0,Shopping,3.12,126.8738866,37.5460499
A1213,C01,서울,미투리,서울 종로구 수표로 95-0,Shopping,3.112,126.9893353,37.56977335
A1214,C01,서울,대한자석,서울 종로구 돈화문로 9-2,Shopping,3.112,126.9920883,37.56947299
A1215,C01,서울,착한벽지,서울 중구 을지로 195-2,Shopping,3.112,126.9997569,37.56699849
A1216,C01,서울,메디에이,서울 광진구 동일로 218-0,Shopping,3.112,127.069327,37.55111257
A1217,C01,서울,삼경마트,서울 중랑구 용마산로100길 80-0,Shopping,3.112,127.102249,37.59022625
A1218,C01,서울,일월축산유통,서울 성동구 청계천로12가길 32-5,Shopping,3.102,127.0354811,37.57069562
A1219,C01,서울,오성인테리어,서울 마포구 망원로3길 15-0,Shopping,3.102,126.9012968,37.55739379
A1220,C01,서울,대림상사,서울 강서구 남부순환로 203-0,Shopping,3.102,126.8210596,37.54775879
A1221,C01,서울,피츠양재직영점,서울 서초구 강남대로 213-0,Shopping,3.102,127.0349496,37.48276664
A1222,C01,서울,동양사무용가구,서울 강남구 학동로 128-0,Shopping,3.102,127.0251539,37.51201265
A1223,C01,서울,너구리굴문정점,서울 송파구 법원로11길 11-0,Shopping,3.102,127.1184413,37.48476557
A1224,C01,서울,고이비토잠실점,서울 송파구 올림픽로 119-0,Shopping,3.102,127.0841862,37.51208443
A1225,C01,서울,옐로우라이트,서울 광진구 천호대로130길 30-0,Shopping,3.102,127.0883941,37.55044211
A1226,C01,서울,목2동시장,서울 양천구 목동중앙본로30가길 55-0,Shopping,3.089,126.8726756,37.54611528
A1227,C01,서울,구로중앙시장,서울 구로구,Shopping,3.089,126.8875053,37.49543309
A1228,C01,서울,고릴라파이프,서울 마포구 동교로 227-5,Shopping,3.089,126.9236783,37.5605699
A1229,C01,서울,에이치25,서울 강서구 마곡서로 158-0,Shopping,3.089,126.8254241,37.5680891
A1230,C01,서울,후지유통,서울 서초구 마방로2길 28-0,Shopping,3.089,127.0391215,37.4723648
A1231,C01,서울,더베이프샵다미,서울 서초구 강남대로 455-0,Shopping,3.089,127.0245439,37.50285946
A1232,C01,서울,메종드파팡,서울 강남구 도산대로17길 27-0,Shopping,3.089,127.0241722,37.52048535
A1233,C01,서울,아리네트웍스,서울 성동구 아차산로 144-0,Shopping,3.089,127.0596099,37.54311881
A1234,C01,서울,도원미트트레이딩,서울 성동구 마장로29길 39-6,Shopping,3.079,127.0365459,37.56963915
A1235,C01,서울,신진주유통,서울 송파구 양재대로 932-0,Shopping,3.079,127.1087136,37.49453769
A1236,C01,서울,비쥬빌딩,서울 서대문구 신촌로 215-0,Shopping,3.079,126.9500433,37.55727725
A1237,C01,서울,동원공예,서울 강서구 국회대로 101-0,Shopping,3.079,126.8460311,37.52776595
A1238,C01,서울,하카코리아강서가양점,서울 강서구 화곡로68길 33-0,Shopping,3.079,126.8557917,37.5592643
A1239,C01,서울,더세일상품권,서울 강남구 테헤란로88길 10-0,Shopping,3.079,127.0594632,37.50684382
A1240,C01,서울,테코시스템,서울 은평구 불광로16길 11-0,Shopping,3.067,126.9329087,37.62165088
A1241,C01,서울,프롬비기닝,서울 마포구 와우산로26길 9-32,Shopping,3.067,126.9281045,37.5530444
A1242,C01,서울,HP서비스마포센터,서울 마포구 독막로 156-0,Shopping,3.067,126.9308374,37.54733713
A1243,C01,서울,공구차용품잡화만물철물도매상,서울 마포구 독막로 55-0,Shopping,3.067,126.9194462,37.54807377
A1244,C01,서울,한일메탈서울영업소,서울 강서구 강서로8길 120-0,Shopping,3.067,126.8547558,37.53043378
A1245,C01,서울,힐링쉴드가산점,서울 금천구 가산디지털1로 142-0,Shopping,3.067,126.8833586,37.47840471
A1246,C01,서울,모던케이스,서울 종로구 돈화문로6가길 2-0,Shopping,3.067,126.9929757,37.57094185
A1247,C01,서울,커스텀위그,서울 노원구 동일로 1371-0,Shopping,3.067,127.061139,37.6509527
A1248,C01,서울,성대전통시장,서울 동작구 국사봉1길 41-0,Shopping,3.067,126.9308567,37.49921775
A1249,C01,서울,인포벨,서울 강남구 광평로 280-0,Shopping,3.058,127.1031081,37.48731916
A1250,C01,서울,신콘강북지점,서울 동대문구 천호대로73길 21-0,Shopping,3.058,127.0538174,37.5677
A1251,C01,서울,프라임인터내쇼날,서울 금천구 범안로15길 22-0,Shopping,3.052,126.8930683,37.46748014
A1252,C01,서울,박승철위그스투디오서초양재점,서울 서초구 강남대로 196-0,Shopping,3.052,127.0372638,37.48194664
A1253,C01,서울,건우산업,서울 서초구 남부순환로337가길 70-0,Shopping,3.052,127.0247655,37.48488991
A1254,C01,서울,영도LED,서울 중구 을지로19길 10-0,Shopping,3.052,126.9958409,37.56703014
A1255,C01,서울,포장119,서울 중구 동호로37길 2-0,Shopping,3.052,127.0017312,37.56845954
A1256,C01,서울,영림종합시장,서울 관악구,Shopping,3.042,126.9515619,37.47836838
A1257,C01,서울,금오적재함,서울 서대문구 불광천길 24-0,Shopping,3.042,126.9043732,37.57754672
A1258,C01,서울,삼화페인트,서울 강남구 논현로 20-0,Shopping,3.042,127.0497447,37.47311909
A1259,C01,서울,형제전기철물,서울 송파구 백제고분로50길 22-0,Shopping,3.042,127.1171757,37.51352207
A1260,C01,서울,골든타워,서울 종로구 돈화문로6가길 12-0,Shopping,3.042,126.9928726,37.57136675
A1261,C01,서울,코리아모자,서울 중구 청계천로 246-0,Shopping,3.042,127.0047211,37.56936838
A1262,C01,서울,애니원,서울 용산구 효창원로69나길 13-0,Shopping,3.042,126.9606902,37.54162625
A1263,C01,서울,오성우산,서울 성동구 동호로 88-0,Shopping,3.042,127.0165185,37.54736911
A1264,C01,서울,부경미트,서울 성동구 마장로33길 67-0,Shopping,3.031,127.0404551,37.57117642
A1265,C01,서울,목동시장,서울 양천구 목동중앙본로7길 45-0,Shopping,3.031,126.8663366,37.53913742
A1266,C01,서울,비라이트캔들공방&선물가게,서울 금천구 가산디지털1로 226-0,Shopping,3.031,126.8799571,37.48542051
A1267,C01,서울,브이데니에,서울 강남구 압구정로50길 28-0,Shopping,3.031,127.0373033,37.52664785
A1268,C01,서울,조앤조갤러리,서울 송파구 동남로2길 27-2,Shopping,3.031,127.1234552,37.48681473
A1269,C01,서울,동일오피스텔엠포,서울 동대문구 회기로 106-0,Shopping,3.031,127.0483055,37.59139338
A1270,C01,서울,홈앤쇼핑고객센터,서울 마포구 월드컵북로 402-0,Shopping,3.02,126.8889823,37.58010775
A1271,C01,서울,영진사,서울 종로구 청계천로 237-0,Shopping,3.02,127.0040878,37.56991215
A1272,C01,서울,한국프라스틱공업협동조합,서울 중구 마른내로 138-0,Shopping,3.02,127.0032528,37.56452395
A1273,C01,서울,올리브영길음역점,서울 성북구 정릉로 376-0,Shopping,3.02,127.0253193,37.60201855
A1274,C01,서울,양키캔들구로디지털단지점,서울 구로구 디지털로32길 93-0,Shopping,3.02,126.9004469,37.48313667
A1275,C01,서울,케이크플라자,서울 서초구 서운로6길 14-0,Shopping,3.02,127.0301659,37.48581192
A1276,C01,서울,페이퍼워크,서울 서초구 강남대로18길 26-0,Shopping,3.02,127.0403211,37.47180577
A1277,C01,서울,청량리종합시장,서울 동대문구 경동시장로 3-1,Shopping,3.008,127.0408575,37.57933848
A1278,C01,서울,드래곤베이프,서울 구로구 디지털로31길 38-9,Shopping,3.008,126.893292,37.48601464
A1279,C01,서울,다이소,서울 구로구 구로동로26길 80-0,Shopping,3.008,126.8885146,37.48999178
A1280,C01,서울,가나안기독교백화점,서울 관악구 관악로 223-0,Shopping,3.008,126.9551665,37.4848321
A1281,C01,서울,캥거루데일리유통,서울 강남구 도산대로101길 29-0,Shopping,3.008,127.0529783,37.52702406
A1282,C01,서울,청담프라그랑스본점,서울 강남구 학동로101길 21-0,Shopping,3.008,127.0571296,37.52178352
A1283,C01,서울,남도수입상가,서울 중구 남대문시장4길 28-9,Shopping,3.008,126.976763,37.55874371
A1284,C01,서울,불광대장간,서울 은평구 통일로69길 15-0,Shopping,2.996,126.9270313,37.61117133
A1285,C01,서울,서교오피스텔,서울 마포구 홍익로3길 20-0,Shopping,2.996,126.9217154,37.55351606
A1286,C01,서울,니오비전,서울 금천구 디지털로9길 32-0,Shopping,2.996,126.8875118,37.4795131
A1287,C01,서울,태산상사,서울 영등포구 양평로28아길 4-0,Shopping,2.996,126.8906118,37.54335151
A1288,C01,서울,금하암스트롱,서울 중구 을지로 118-0,Shopping,2.996,126.9908892,37.5659956
A1289,C01,서울,한양철물,서울 성동구 마조로 65-0,Shopping,2.996,127.0415466,37.56374805
A1290,C01,서울,대원녹색의집,서울 광진구 영화사로3나길 28-0,Shopping,2.996,127.0937214,37.55728441
A1291,C01,서울,영천학사,서울 동대문구 천호대로4길 17-0,Shopping,2.996,127.0253641,37.57352835
A1292,C01,서울,청룡상회,서울 동대문구 고산자로 455-0,Shopping,2.985,127.0381359,37.58033787
A1293,C01,서울,린나이목동대리점,서울 양천구 목동중앙본로5길 2-0,Shopping,2.985,126.8685161,37.53966344
A1294,C01,서울,Wconcept,서울 강남구 테헤란로14길 16-0,Shopping,2.985,127.0330829,37.49827315
A1295,C01,서울,와우빈티지잠실점,서울 송파구 송파대로49길 52-0,Shopping,2.985,127.0989685,37.50618752
A1296,C01,서울,동신철물,서울 송파구 송파대로 106-17,Shopping,2.985,127.1265088,37.4806405
A1297,C01,서울,샨탈서울,서울 성동구 무수막길 45-0,Shopping,2.985,127.0230129,37.55083056
A1298,C01,서울,영텐트,서울 광진구 능동로 18-0,Shopping,2.985,127.0678785,37.53268464
